fŕ&Šb‚Šb‚’b
9QMQQUMőINIT*3B
$GNTXT,01,01,02,PF=F7FFF*4F
$GNTXT,01,01,02,Starting GNSS*5A
$GNRMC,,V,,,,,,,,,,N,V*37
$GNVTG,,,,,,,,,N*2E
$GNGGA,,,,,,0,00,99.99,,,,,,*56
$GNGSA,A,1,,,,,,,,,,,,,99.99,99.99,99.99,1*33
$GNGSA,A,1,,,,,,,,,,,,,99.99,99.99,99.99,2*30
$GNGSA,A,1,,,,,,,,,,,,,99.99,99.99,99.99,3*31
$GNGSA,A,1,,,,,,,,,,,,,99.99,99.99,99.99,4*36
$GNGSA,A,1,,,,,,,,,,,,,99.99,99.99,99.99,5*37
$GPGSV,1,1,00,0*65
$GLGSV,1,1,00,0*79
$GAGSV,1,1,00,0*74
$GBGSV,1,1,00,0*77
$GQGSV,1,1,00,0*64
$GNGLL,,,,,,V,N*7A
$GNTXT,01,01,02,ANTSTATUS=OK*25
$GNRMC,,V,,,,,,,,,,N,V*37
$GNVTG,,,,,,,,,N*2E
$GNGGA,,,,,,0,00,99.99,,,,,,*56
$GNGSA,A,1,,,,,,,,,,,,,99.99,99.99,99.99,1*33
$GNGSA,A,1,,,,,,,,,,,,,99.99,99.99,99.99,2*30
$GNGSA,A,1,,,,,,,,,,,,,99.99,99.99,99.99,3*31
$GNGSA,A,1,,,,,,,,,,,,,99.99,99.99,99.99,4*36
$GNGSA,A,1,,,,,,,,,,,,,99.99,99.99,99.99,5*37
$GNGLL,,,,,,V,N*7A
$GNRMC,,V,,,,,,,,,,N,V*37
$GNVTG,,,,,,,,,N*2E
$GNGGA,,,,,,0,00,99.99,,,,,,*56
$GNGSA,A,1,,,,,,,,,,,,,99.99,99.99,99.99,1*33
$GNGSA,A,1,,,,,,,,,,,,,99.99,99.99,99.99,2*30
$GNGSA,A,1,,,,,,,,,,,,,99.99,99.99,99.99,3*31
$GNGSA,A,1,,,,,,,,,,,,,99.99,99.99,99.99,4*36
$GNGSA,A,1,,,,,,,,,,,,,99.99,99.99,99.99,5*37
$GNGLL,,,,,,V,N*7A
$GNRMC,,V,,,,,,,,,,N,V*37
$GNVTG,,,,,,,,,N*2E
$GNGGA,,,,,,0,00,99.99,,,,,,*56
$GNGSA,A,1,,,,,,,,,,,,,99.99,99.99,99.99,1*33
$GNGSA,A,1,,,,,,,,,,,,,99.99,99.99,99.99,2*30
$GNGSA,A,1,,,,,,,,,,,,,99.99,99.99,99.99,3*31
$GNGSA,A,1,,,,,,,,,,,,,99.99,99.99,99.99,4*36
$GNGSA,A,1,,,,,,,,,,,,,99.99,99.99,99.99,5*37
$GNGLL,,,,,,V,N*7A
$GNRMC,,V,,,,,,,,,,N,V*37
$GNVTG,,,,,,,,,N*2E
$GNGGA,,,,,,0,00,99.99,,,,,,*56
$GNGSA,A,1,,,,,,,,,,,,,99.99,99.99,99.99,1*33
$GNGSA,A,1,,,,,,,,,,,,,99.99,99.99,99.99,2*30
$GNGSA,A,1,,,,,,,,,,,,,99.99,99.99,99.99,3*31
$GNGSA,A,1,,,,,,,,,,,,,99.99,99.99,99.99,4*36
$GNGSA,A,1,,,,,,,,,,,,,99.99,99.99,99.99,5*37
$GNGLL,,,,,,V,N*7A
$GNRMC,,V,,,,,,,,,,N,V*37
$GNVTG,,,,,,,,,N*2E
$GNGGA,,,,,,0,00,99.99,,,,,,*56
$GNGSA,A,1,,,,,,,,,,,,,99.99,99.99,99.99,1*33
$GNGSA,A,1,,,,,,,,,,,,,99.99,99.99,99.99,2*30
$GNGSA,A,1,,,,,,,,,,,,,99.99,99.99,99.99,3*31
$GNGSA,A,1,,,,,,,,,,,,,99.99,99.99,99.99,4*36
$GNGSA,A,1,,,,,,,,,,,,,99.99,99.99,99.99,5*37
$GPGSV,1,1,01,07,,,41,1*67
$GLGSV,1,1,00,0*79
$GAGSV,1,1,00,0*74
$GBGSV,1,1,00,0*77
$GQGSV,1,1,01,04,,,39,1*6A
$GNGLL,,,,,,V,N*7A
$GNRMC,,V,,,,,,,,,,N,V*37
$GNVTG,,,,,,,,,N*2E
$GNGGA,,,,,,0,00,99.99,,,,,,*56
$GNGSA,A,1,,,,,,,,,,,,,99.99,99.99,99.99,1*33
$GNGSA,A,1,,,,,,,,,,,,,99.99,99.99,99.99,2*30
$GNGSA,A,1,,,,,,,,,,,,,99.99,99.99,99.99,3*31
$GNGSA,A,1,,,,,,,,,,,,,99.99,99.99,99.99,4*36
$GNGSA,A,1,,,,,,,,,,,,,99.99,99.99,99.99,5*37
$GNGLL,,,,,,V,N*7A
$GNRMC,015857.33,V,,,,,,,,,,N,V*17
$GNVTG,,,,,,,,,N*2E
$GNGGA,015857.33,,,,,0,00,99.99,,,,,,*76
$GNGSA,A,1,,,,,,,,,,,,,99.99,99.99,99.99,1*33
$GNGSA,A,1,,,,,,,,,,,,,99.99,99.99,99.99,2*30
$GNGSA,A,1,,,,,,,,,,,,,99.99,99.99,99.99,3*31
$GNGSA,A,1,,,,,,,,,,,,,99.99,99.99,99.99,4*36
$GNGSA,A,1,,,,,,,,,,,,,99.99,99.99,99.99,5*37
$GNGLL,,,,,015857.33,V,N*5A
$GNRMC,015858.00,V,,,,,,,,,,N,V*18
$GNVTG,,,,,,,,,N*2E
$GNGGA,015858.00,,,,,0,00,99.99,,,,,,*79
$GNGSA,A,1,,,,,,,,,,,,,99.99,99.99,99.99,1*33
$GNGSA,A,1,,,,,,,,,,,,,99.99,99.99,99.99,2*30
$GNGSA,A,1,,,,,,,,,,,,,99.99,99.99,99.99,3*31
$GNGSA,A,1,,,,,,,,,,,,,99.99,99.99,99.99,4*36
$GNGSA,A,1,,,,,,,,,,,,,99.99,99.99,99.99,5*37
$GNGLL,,,,,015858.00,V,N*55
$GNRMC,015859.00,V,,,,,,,,,,N,V*19
$GNVTG,,,,,,,,,N*2E
$GNGGA,015859.00,,,,,0,00,99.99,,,,,,*78
$GNGSA,A,1,,,,,,,,,,,,,99.99,99.99,99.99,1*33
$GNGSA,A,1,,,,,,,,,,,,,99.99,99.99,99.99,2*30
$GNGSA,A,1,,,,,,,,,,,,,99.99,99.99,99.99,3*31
$GNGSA,A,1,,,,,,,,,,,,,99.99,99.99,99.99,4*36
$GNGSA,A,1,,,,,,,,,,,,,99.99,99.99,99.99,5*37
$GNGLL,,,,,015859.00,V,N*54
$GNRMC,015900.00,V,,,,,,,,,,N,V*14
$GNVTG,,,,,,,,,N*2E
$GNGGA,015900.00,,,,,0,00,99.99,,,,,,*75
$GNGSA,A,1,,,,,,,,,,,,,99.99,99.99,99.99,1*33
$GNGSA,A,1,,,,,,,,,,,,,99.99,99.99,99.99,2*30
$GNGSA,A,1,,,,,,,,,,,,,99.99,99.99,99.99,3*31
$GNGSA,A,1,,,,,,,,,,,,,99.99,99.99,99.99,4*36
$GNGSA,A,1,,,,,,,,,,,,,99.99,99.99,99.99,5*37
$GPGSV,1,1,02,03,,,29,07,,,42,1*6F
$GLGSV,1,1,00,0*79
$GAGSV,1,1,00,0*74
$GBGSV,1,1,00,0*77
$GQGSV,1,1,01,04,,,38,1*6B
$GNGLL,,,,,015900.00,V,N*59
$GNRMC,015901.00,V,,,,,,,,,,N,V*15
$GNVTG,,,,,,,,,N*2E
$GNGGA,015901.00,,,,,0,00,99.99,,,,,,*74
$GNGSA,A,1,,,,,,,,,,,,,99.99,99.99,99.99,1*33
$GNGSA,A,1,,,,,,,,,,,,,99.99,99.99,99.99,2*30
$GNGSA,A,1,,,,,,,,,,,,,99.99,99.99,99.99,3*31
$GNGSA,A,1,,,,,,,,,,,,,99.99,99.99,99.99,4*36
$GNGSA,A,1,,,,,,,,,,,,,99.99,99.99,99.99,5*37
$GNGLL,,,,,015901.00,V,N*58
$GNRMC,015902.00,V,,,,,,,,,,N,V*16
$GNVTG,,,,,,,,,N*2E
$GNGGA,015902.00,,,,,0,00,99.99,,,,,,*77
$GNGSA,A,1,,,,,,,,,,,,,99.99,99.99,99.99,1*33
$GNGSA,A,1,,,,,,,,,,,,,99.99,99.99,99.99,2*30
$GNGSA,A,1,,,,,,,,,,,,,99.99,99.99,99.99,3*31
$GNGSA,A,1,,,,,,,,,,,,,99.99,99.99,99.99,4*36
$GNGSA,A,1,,,,,,,,,,,,,99.99,99.99,99.99,5*37
$GNGLL,,,,,015902.00,V,N*5B
$GNRMC,015903.00,V,,,,,,,,,,N,V*17
$GNVTG,,,,,,,,,N*2E
$GNGGA,015903.00,,,,,0,00,99.99,,,,,,*76
$GNGSA,A,1,,,,,,,,,,,,,99.99,99.99,99.99,1*33
$GNGSA,A,1,,,,,,,,,,,,,99.99,99.99,99.99,2*30
$GNGSA,A,1,,,,,,,,,,,,,99.99,99.99,99.99,3*31
$GNGSA,A,1,,,,,,,,,,,,,99.99,99.99,99.99,4*36
$GNGSA,A,1,,,,,,,,,,,,,99.99,99.99,99.99,5*37
$GNGLL,,,,,015903.00,V,N*5A
$GNRMC,015904.00,V,,,,,,,,,,N,V*10
$GNVTG,,,,,,,,,N*2E
$GNGGA,015904.00,,,,,0,00,99.99,,,,,,*71
$GNGSA,A,1,,,,,,,,,,,,,99.99,99.99,99.99,1*33
$GNGSA,A,1,,,,,,,,,,,,,99.99,99.99,99.99,2*30
$GNGSA,A,1,,,,,,,,,,,,,99.99,99.99,99.99,3*31
$GNGSA,A,1,,,,,,,,,,,,,99.99,99.99,99.99,4*36
$GNGSA,A,1,,,,,,,,,,,,,99.99,99.99,99.99,5*37
$GNGLL,,,,,015904.00,V,N*5D
$GNRMC,015905.00,V,,,,,,,,,,N,V*11
$GNVTG,,,,,,,,,N*2E
$GNGGA,015905.00,,,,,0,00,99.99,,,,,,*70
$GNGSA,A,1,,,,,,,,,,,,,99.99,99.99,99.99,1*33
$GNGSA,A,1,,,,,,,,,,,,,99.99,99.99,99.99,2*30
$GNGSA,A,1,,,,,,,,,,,,,99.99,99.99,99.99,3*31
$GNGSA,A,1,,,,,,,,,,,,,99.99,99.99,99.99,4*36
$GNGSA,A,1,,,,,,,,,,,,,99.99,99.99,99.99,5*37
$GPGSV,1,1,02,03,,,30,07,,,42,1*67
$GLGSV,1,1,01,,,,33,1*79
$GAGSV,1,1,00,0*74
$GBGSV,1,1,00,0*77
$GQGSV,1,1,01,04,,,38,1*6B
$GNGLL,,,,,015905.00,V,N*5C
$GNRMC,015906.00,V,,,,,,,,,,N,V*12
$GNVTG,,,,,,,,,N*2E
$GNGGA,015906.00,,,,,0,00,99.99,,,,,,*73
$GNGSA,A,1,,,,,,,,,,,,,99.99,99.99,99.99,1*33
$GNGSA,A,1,,,,,,,,,,,,,99.99,99.99,99.99,2*30
$GNGSA,A,1,,,,,,,,,,,,,99.99,99.99,99.99,3*31
$GNGSA,A,1,,,,,,,,,,,,,99.99,99.99,99.99,4*36
$GNGSA,A,1,,,,,,,,,,,,,99.99,99.99,99.99,5*37
$GNGLL,,,,,015906.00,V,N*5F
$GNRMC,015907.00,V,,,,,,,,,,N,V*13
$GNVTG,,,,,,,,,N*2E
$GNGGA,015907.00,,,,,0,00,99.99,,,,,,*72
$GNGSA,A,1,,,,,,,,,,,,,99.99,99.99,99.99,1*33
$GNGSA,A,1,,,,,,,,,,,,,99.99,99.99,99.99,2*30
$GNGSA,A,1,,,,,,,,,,,,,99.99,99.99,99.99,3*31
$GNGSA,A,1,,,,,,,,,,,,,99.99,99.99,99.99,4*36
$GNGSA,A,1,,,,,,,,,,,,,99.99,99.99,99.99,5*37
$GNGLL,,,,,015907.00,V,N*5E
$GNRMC,015908.00,V,,,,,,,,,,N,V*1C
$GNVTG,,,,,,,,,N*2E
$GNGGA,015908.00,,,,,0,00,99.99,,,,,,*7D
$GNGSA,A,1,,,,,,,,,,,,,99.99,99.99,99.99,1*33
$GNGSA,A,1,,,,,,,,,,,,,99.99,99.99,99.99,2*30
$GNGSA,A,1,,,,,,,,,,,,,99.99,99.99,99.99,3*31
$GNGSA,A,1,,,,,,,,,,,,,99.99,99.99,99.99,4*36
$GNGSA,A,1,,,,,,,,,,,,,99.99,99.99,99.99,5*37
$GNGLL,,,,,015908.00,V,N*51
$GNRMC,015909.00,V,,,,,,,,,,N,V*1D
$GNVTG,,,,,,,,,N*2E
$GNGGA,015909.00,,,,,0,00,99.99,,,,,,*7C
$GNGSA,A,1,,,,,,,,,,,,,99.99,99.99,99.99,1*33
$GNGSA,A,1,,,,,,,,,,,,,99.99,99.99,99.99,2*30
$GNGSA,A,1,,,,,,,,,,,,,99.99,99.99,99.99,3*31
$GNGSA,A,1,,,,,,,,,,,,,99.99,99.99,99.99,4*36
$GNGSA,A,1,,,,,,,,,,,,,99.99,99.99,99.99,5*37
$GNGLL,,,,,015909.00,V,N*50
$GNRMC,015910.00,V,,,,,,,,,,N,V*15
$GNVTG,,,,,,,,,N*2E
$GNGGA,015910.00,,,,,0,00,99.99,,,,,,*74
$GNGSA,A,1,,,,,,,,,,,,,99.99,99.99,99.99,1*33
$GNGSA,A,1,,,,,,,,,,,,,99.99,99.99,99.99,2*30
$GNGSA,A,1,,,,,,,,,,,,,99.99,99.99,99.99,3*31
$GNGSA,A,1,,,,,,,,,,,,,99.99,99.99,99.99,4*36
$GNGSA,A,1,,,,,,,,,,,,,99.99,99.99,99.99,5*37
$GPGSV,1,1,02,03,,,30,07,,,43,1*66
$GLGSV,1,1,01,,,,34,1*7E
$GAGSV,1,1,00,0*74
$GBGSV,1,1,00,0*77
$GQGSV,1,1,01,04,,,38,1*6B
$GNGLL,,,,,015910.00,V,N*58
$GNRMC,015911.00,V,,,,,,,,,,N,V*14
$GNVTG,,,,,,,,,N*2E
$GNGGA,015911.00,,,,,0,00,99.99,,,,,,*75
$GNGSA,A,1,,,,,,,,,,,,,99.99,99.99,99.99,1*33
$GNGSA,A,1,,,,,,,,,,,,,99.99,99.99,99.99,2*30
$GNGSA,A,1,,,,,,,,,,,,,99.99,99.99,99.99,3*31
$GNGSA,A,1,,,,,,,,,,,,,99.99,99.99,99.99,4*36
$GNGSA,A,1,,,,,,,,,,,,,99.99,99.99,99.99,5*37
$GNGLL,,,,,015911.00,V,N*59
$GNRMC,015912.00,V,,,,,,,,,,N,V*17
$GNVTG,,,,,,,,,N*2E
$GNGGA,015912.00,,,,,0,00,99.99,,,,,,*76
$GNGSA,A,1,,,,,,,,,,,,,99.99,99.99,99.99,1*33
$GNGSA,A,1,,,,,,,,,,,,,99.99,99.99,99.99,2*30
$GNGSA,A,1,,,,,,,,,,,,,99.99,99.99,99.99,3*31
$GNGSA,A,1,,,,,,,,,,,,,99.99,99.99,99.99,4*36
$GNGSA,A,1,,,,,,,,,,,,,99.99,99.99,99.99,5*37
$GNGLL,,,,,015912.00,V,N*5A
$GNRMC,015913.00,V,,,,,,,,,,N,V*16
$GNVTG,,,,,,,,,N*2E
$GNGGA,015913.00,,,,,0,00,99.99,,,,,,*77
$GNGSA,A,1,,,,,,,,,,,,,99.99,99.99,99.99,1*33
$GNGSA,A,1,,,,,,,,,,,,,99.99,99.99,99.99,2*30
$GNGSA,A,1,,,,,,,,,,,,,99.99,99.99,99.99,3*31
$GNGSA,A,1,,,,,,,,,,,,,99.99,99.99,99.99,4*36
$GNGSA,A,1,,,,,,,,,,,,,99.99,99.99,99.99,5*37
$GNGLL,,,,,015913.00,V,N*5B
$GNRMC,015914.00,V,,,,,,,210525,,,N,V*10
$GNVTG,,,,,,,,,N*2E
$GNGGA,015914.00,,,,,0,00,99.99,,,,,,*70
$GNGSA,A,1,,,,,,,,,,,,,99.99,99.99,99.99,1*33
$GNGSA,A,1,,,,,,,,,,,,,99.99,99.99,99.99,2*30
$GNGSA,A,1,,,,,,,,,,,,,99.99,99.99,99.99,3*31
$GNGSA,A,1,,,,,,,,,,,,,99.99,99.99,99.99,4*36
$GNGSA,A,1,,,,,,,,,,,,,99.99,99.99,99.99,5*37
$GNGLL,,,,,015914.00,V,N*5C
$GNRMC,015915.00,V,,,,,,,210525,,,N,V*11
$GNVTG,,,,,,,,,N*2E
$GNGGA,015915.00,,,,,0,00,99.99,,,,,,*71
$GNGSA,A,1,,,,,,,,,,,,,99.99,99.99,99.99,1*33
$GNGSA,A,1,,,,,,,,,,,,,99.99,99.99,99.99,2*30
$GNGSA,A,1,,,,,,,,,,,,,99.99,99.99,99.99,3*31
$GNGSA,A,1,,,,,,,,,,,,,99.99,99.99,99.99,4*36
$GNGSA,A,1,,,,,,,,,,,,,99.99,99.99,99.99,5*37
$GPGSV,1,1,02,03,,,30,07,,,42,1*67
$GLGSV,1,1,01,,,,34,1*7E
$GAGSV,1,1,00,0*74
$GBGSV,1,1,00,0*77
$GQGSV,1,1,01,04,,,38,1*6B
$GNGLL,,,,,015915.00,V,N*5D
$GNRMC,015916.00,V,,,,,,,210525,,,N,V*12
$GNVTG,,,,,,,,,N*2E
$GNGGA,015916.00,,,,,0,00,99.99,,,,,,*72
$GNGSA,A,1,,,,,,,,,,,,,99.99,99.99,99.99,1*33
$GNGSA,A,1,,,,,,,,,,,,,99.99,99.99,99.99,2*30
$GNGSA,A,1,,,,,,,,,,,,,99.99,99.99,99.99,3*31
$GNGSA,A,1,,,,,,,,,,,,,99.99,99.99,99.99,4*36
$GNGSA,A,1,,,,,,,,,,,,,99.99,99.99,99.99,5*37
$GNGLL,,,,,015916.00,V,N*5E
$GNRMC,015917.00,V,,,,,,,210525,,,N,V*13
$GNVTG,,,,,,,,,N*2E
$GNGGA,015917.00,,,,,0,00,99.99,,,,,,*73
$GNGSA,A,1,,,,,,,,,,,,,99.99,99.99,99.99,1*33
$GNGSA,A,1,,,,,,,,,,,,,99.99,99.99,99.99,2*30
$GNGSA,A,1,,,,,,,,,,,,,99.99,99.99,99.99,3*31
$GNGSA,A,1,,,,,,,,,,,,,99.99,99.99,99.99,4*36
$GNGSA,A,1,,,,,,,,,,,,,99.99,99.99,99.99,5*37
$GNGLL,,,,,015917.00,V,N*5F
$GNRMC,015918.00,V,,,,,,,210525,,,N,V*1C
$GNVTG,,,,,,,,,N*2E
$GNGGA,015918.00,,,,,0,00,99.99,,,,,,*7C
$GNGSA,A,1,,,,,,,,,,,,,99.99,99.99,99.99,1*33
$GNGSA,A,1,,,,,,,,,,,,,99.99,99.99,99.99,2*30
$GNGSA,A,1,,,,,,,,,,,,,99.99,99.99,99.99,3*31
$GNGSA,A,1,,,,,,,,,,,,,99.99,99.99,99.99,4*36
$GNGSA,A,1,,,,,,,,,,,,,99.99,99.99,99.99,5*37
$GNGLL,,,,,015918.00,V,N*50
$GNRMC,015919.00,V,,,,,,,210525,,,N,V*1D
$GNVTG,,,,,,,,,N*2E
$GNGGA,015919.00,,,,,0,00,99.99,,,,,,*7D
$GNGSA,A,1,,,,,,,,,,,,,99.99,99.99,99.99,1*33
$GNGSA,A,1,,,,,,,,,,,,,99.99,99.99,99.99,2*30
$GNGSA,A,1,,,,,,,,,,,,,99.99,99.99,99.99,3*31
$GNGSA,A,1,,,,,,,,,,,,,99.99,99.99,99.99,4*36
$GNGSA,A,1,,,,,,,,,,,,,99.99,99.99,99.99,5*37
$GNGLL,,,,,015919.00,V,N*51
$GNRMC,015920.00,V,,,,,,,210525,,,N,V*17
$GNVTG,,,,,,,,,N*2E
$GNGGA,015920.00,,,,,0,00,99.99,,,,,,*77
$GNGSA,A,1,,,,,,,,,,,,,99.99,99.99,99.99,1*33
$GNGSA,A,1,,,,,,,,,,,,,99.99,99.99,99.99,2*30
$GNGSA,A,1,,,,,,,,,,,,,99.99,99.99,99.99,3*31
$GNGSA,A,1,,,,,,,,,,,,,99.99,99.99,99.99,4*36
$GNGSA,A,1,,,,,,,,,,,,,99.99,99.99,99.99,5*37
$GPGSV,1,1,02,03,,,30,07,,,42,1*67
$GLGSV,1,1,01,,,,34,1*7E
$GAGSV,1,1,00,0*74
$GBGSV,1,1,00,0*77
$GQGSV,1,1,01,04,,,38,1*6B
$GNGLL,,,,,015920.00,V,N*5B
$GNRMC,015921.00,V,,,,,,,210525,,,N,V*16
$GNVTG,,,,,,,,,N*2E
$GNGGA,015921.00,,,,,0,00,99.99,,,,,,*76
$GNGSA,A,1,,,,,,,,,,,,,99.99,99.99,99.99,1*33
$GNGSA,A,1,,,,,,,,,,,,,99.99,99.99,99.99,2*30
$GNGSA,A,1,,,,,,,,,,,,,99.99,99.99,99.99,3*31
$GNGSA,A,1,,,,,,,,,,,,,99.99,99.99,99.99,4*36
$GNGSA,A,1,,,,,,,,,,,,,99.99,99.99,99.99,5*37
$GNGLL,,,,,015921.00,V,N*5A
$GNRMC,015922.00,V,,,,,,,210525,,,N,V*15
$GNVTG,,,,,,,,,N*2E
$GNGGA,015922.00,,,,,0,00,99.99,,,,,,*75
$GNGSA,A,1,,,,,,,,,,,,,99.99,99.99,99.99,1*33
$GNGSA,A,1,,,,,,,,,,,,,99.99,99.99,99.99,2*30
$GNGSA,A,1,,,,,,,,,,,,,99.99,99.99,99.99,3*31
$GNGSA,A,1,,,,,,,,,,,,,99.99,99.99,99.99,4*36
$GNGSA,A,1,,,,,,,,,,,,,99.99,99.99,99.99,5*37
$GNGLL,,,,,015922.00,V,N*59
$GNRMC,015923.00,V,,,,,,,210525,,,N,V*14
$GNVTG,,,,,,,,,N*2E
$GNGGA,015923.00,,,,,0,00,99.99,,,,,,*74
$GNGSA,A,1,,,,,,,,,,,,,99.99,99.99,99.99,1*33
$GNGSA,A,1,,,,,,,,,,,,,99.99,99.99,99.99,2*30
$GNGSA,A,1,,,,,,,,,,,,,99.99,99.99,99.99,3*31
$GNGSA,A,1,,,,,,,,,,,,,99.99,99.99,99.99,4*36
$GNGSA,A,1,,,,,,,,,,,,,99.99,99.99,99.99,5*37
$GNGLL,,,,,015923.00,V,N*58
$GNRMC,015924.00,V,,,,,,,210525,,,N,V*13
$GNVTG,,,,,,,,,N*2E
$GNGGA,015924.00,,,,,0,00,99.99,,,,,,*73
$GNGSA,A,1,,,,,,,,,,,,,99.99,99.99,99.99,1*33
$GNGSA,A,1,,,,,,,,,,,,,99.99,99.99,99.99,2*30
$GNGSA,A,1,,,,,,,,,,,,,99.99,99.99,99.99,3*31
$GNGSA,A,1,,,,,,,,,,,,,99.99,99.99,99.99,4*36
$GNGSA,A,1,,,,,,,,,,,,,99.99,99.99,99.99,5*37
$GNGLL,,,,,015924.00,V,N*5F
$GNRMC,015925.00,V,,,,,,,210525,,,N,V*12
$GNVTG,,,,,,,,,N*2E
$GNGGA,015925.00,,,,,0,00,99.99,,,,,,*72
$GNGSA,A,1,,,,,,,,,,,,,99.99,99.99,99.99,1*33
$GNGSA,A,1,,,,,,,,,,,,,99.99,99.99,99.99,2*30
$GNGSA,A,1,,,,,,,,,,,,,99.99,99.99,99.99,3*31
$GNGSA,A,1,,,,,,,,,,,,,99.99,99.99,99.99,4*36
$GNGSA,A,1,,,,,,,,,,,,,99.99,99.99,99.99,5*37
$GPGSV,1,1,02,03,,,30,07,,,42,1*67
$GLGSV,1,1,01,,,,34,1*7E
$GAGSV,1,1,00,0*74
$GBGSV,1,1,00,0*77
$GQGSV,1,1,01,04,,,38,1*6B
$GNGLL,,,,,015925.00,V,N*5E
$GNRMC,015926.00,V,,,,,,,210525,,,N,V*11
$GNVTG,,,,,,,,,N*2E
$GNGGA,015926.00,,,,,0,00,99.99,,,,,,*71
$GNGSA,A,1,,,,,,,,,,,,,99.99,99.99,99.99,1*33
$GNGSA,A,1,,,,,,,,,,,,,99.99,99.99,99.99,2*30
$GNGSA,A,1,,,,,,,,,,,,,99.99,99.99,99.99,3*31
$GNGSA,A,1,,,,,,,,,,,,,99.99,99.99,99.99,4*36
$GNGSA,A,1,,,,,,,,,,,,,99.99,99.99,99.99,5*37
$GNGLL,,,,,015926.00,V,N*5D
$GNRMC,015927.00,V,,,,,,,210525,,,N,V*10
$GNVTG,,,,,,,,,N*2E
$GNGGA,015927.00,,,,,0,00,99.99,,,,,,*70
$GNGSA,A,1,,,,,,,,,,,,,99.99,99.99,99.99,1*33
$GNGSA,A,1,,,,,,,,,,,,,99.99,99.99,99.99,2*30
$GNGSA,A,1,,,,,,,,,,,,,99.99,99.99,99.99,3*31
$GNGSA,A,1,,,,,,,,,,,,,99.99,99.99,99.99,4*36
$GNGSA,A,1,,,,,,,,,,,,,99.99,99.99,99.99,5*37
$GNGLL,,,,,015927.00,V,N*5C
$GNRMC,015928.00,V,,,,,,,210525,,,N,V*1F
$GNVTG,,,,,,,,,N*2E
$GNGGA,015928.00,,,,,0,00,99.99,,,,,,*7F
$GNGSA,A,1,,,,,,,,,,,,,99.99,99.99,99.99,1*33
$GNGSA,A,1,,,,,,,,,,,,,99.99,99.99,99.99,2*30
$GNGSA,A,1,,,,,,,,,,,,,99.99,99.99,99.99,3*31
$GNGSA,A,1,,,,,,,,,,,,,99.99,99.99,99.99,4*36
$GNGSA,A,1,,,,,,,,,,,,,99.99,99.99,99.99,5*37
$GNGLL,,,,,015928.00,V,N*53
$GNRMC,015929.00,V,,,,,,,210525,,,N,V*1E
$GNVTG,,,,,,,,,N*2E
$GNGGA,015929.00,,,,,0,00,99.99,,,,,,*7E
$GNGSA,A,1,,,,,,,,,,,,,99.99,99.99,99.99,1*33
$GNGSA,A,1,,,,,,,,,,,,,99.99,99.99,99.99,2*30
$GNGSA,A,1,,,,,,,,,,,,,99.99,99.99,99.99,3*31
$GNGSA,A,1,,,,,,,,,,,,,99.99,99.99,99.99,4*36
$GNGSA,A,1,,,,,,,,,,,,,99.99,99.99,99.99,5*37
$GNGLL,,,,,015929.00,V,N*52
$GNRMC,015930.00,V,,,,,,,210525,,,N,V*16
$GNVTG,,,,,,,,,N*2E
$GNGGA,015930.00,,,,,0,03,3.87,,,,,,*49
$GNGSA,A,1,07,03,,,,,,,,,,,4.00,3.87,1.00,1*0E
$GNGSA,A,1,,,,,,,,,,,,,4.00,3.87,1.00,2*09
$GNGSA,A,1,,,,,,,,,,,,,4.00,3.87,1.00,3*08
$GNGSA,A,1,,,,,,,,,,,,,4.00,3.87,1.00,4*0F
$GNGSA,A,1,04,,,,,,,,,,,,4.00,3.87,1.00,5*0A
$GPGSV,1,1,02,03,23,066,30,07,22,168,42,1*69
$GLGSV,1,1,01,,,,34,1*7E
$GAGSV,1,1,00,0*74
$GBGSV,1,1,00,0*77
$GQGSV,1,1,01,04,24,124,38,1*5A
$GNGLL,,,,,015930.00,V,N*5A
$GNRMC,015931.00,V,,,,,,,210525,,,N,V*17
$GNVTG,,,,,,,,,N*2E
$GNGGA,015931.00,,,,,0,03,3.87,,,,,,*48
$GNGSA,A,1,07,03,,,,,,,,,,,4.00,3.87,1.00,1*0E
$GNGSA,A,1,,,,,,,,,,,,,4.00,3.87,1.00,2*09
$GNGSA,A,1,,,,,,,,,,,,,4.00,3.87,1.00,3*08
$GNGSA,A,1,,,,,,,,,,,,,4.00,3.87,1.00,4*0F
$GNGSA,A,1,04,,,,,,,,,,,,4.00,3.87,1.00,5*0A
$GNGLL,,,,,015931.00,V,N*5B
$GNRMC,015932.00,V,,,,,,,210525,,,N,V*14
$GNVTG,,,,,,,,,N*2E
$GNGGA,015932.00,,,,,0,03,3.87,,,,,,*4B
$GNGSA,A,1,07,03,,,,,,,,,,,4.00,3.87,1.00,1*0E
$GNGSA,A,1,,,,,,,,,,,,,4.00,3.87,1.00,2*09
$GNGSA,A,1,,,,,,,,,,,,,4.00,3.87,1.00,3*08
$GNGSA,A,1,,,,,,,,,,,,,4.00,3.87,1.00,4*0F
$GNGSA,A,1,04,,,,,,,,,,,,4.00,3.87,1.00,5*0A
$GNGLL,,,,,015932.00,V,N*58
$GNRMC,015933.00,V,,,,,,,210525,,,N,V*15
$GNVTG,,,,,,,,,N*2E
$GNGGA,015933.00,,,,,0,03,3.87,,,,,,*4A
$GNGSA,A,1,07,03,,,,,,,,,,,4.00,3.87,1.00,1*0E
$GNGSA,A,1,,,,,,,,,,,,,4.00,3.87,1.00,2*09
$GNGSA,A,1,,,,,,,,,,,,,4.00,3.87,1.00,3*08
$GNGSA,A,1,,,,,,,,,,,,,4.00,3.87,1.00,4*0F
$GNGSA,A,1,04,,,,,,,,,,,,4.00,3.87,1.00,5*0A
$GNGLL,,,,,015933.00,V,N*59
$GNRMC,015934.00,V,,,,,,,210525,,,N,V*12
$GNVTG,,,,,,,,,N*2E
$GNGGA,015934.00,,,,,0,03,3.87,,,,,,*4D
$GNGSA,A,1,07,03,,,,,,,,,,,4.00,3.87,1.00,1*0E
$GNGSA,A,1,,,,,,,,,,,,,4.00,3.87,1.00,2*09
$GNGSA,A,1,,,,,,,,,,,,,4.00,3.87,1.00,3*08
$GNGSA,A,1,,,,,,,,,,,,,4.00,3.87,1.00,4*0F
$GNGSA,A,1,04,,,,,,,,,,,,4.00,3.87,1.00,5*0A
$GNGLL,,,,,015934.00,V,N*5E
$GNRMC,015935.00,V,,,,,,,210525,,,N,V*13
$GNVTG,,,,,,,,,N*2E
$GNGGA,015935.00,,,,,0,03,3.87,,,,,,*4C
$GNGSA,A,1,07,03,,,,,,,,,,,4.00,3.87,1.00,1*0E
$GNGSA,A,1,,,,,,,,,,,,,4.00,3.87,1.00,2*09
$GNGSA,A,1,,,,,,,,,,,,,4.00,3.87,1.00,3*08
$GNGSA,A,1,,,,,,,,,,,,,4.00,3.87,1.00,4*0F
$GNGSA,A,1,04,,,,,,,,,,,,4.00,3.87,1.00,5*0A
$GPGSV,1,1,03,03,23,066,29,07,22,168,42,30,,,32,1*62
$GLGSV,1,1,02,,,,34,,,,29,1*76
$GAGSV,1,1,00,0*74
$GBGSV,1,1,00,0*77
$GQGSV,1,1,01,04,24,124,38,1*5A
$GNGLL,,,,,015935.00,V,N*5F
$GNRMC,015936.00,V,,,,,,,210525,,,N,V*10
$GNVTG,,,,,,,,,N*2E
$GNGGA,015936.00,,,,,0,03,3.87,,,,,,*4F
$GNGSA,A,1,07,03,,,,,,,,,,,4.00,3.87,1.00,1*0E
$GNGSA,A,1,,,,,,,,,,,,,4.00,3.87,1.00,2*09
$GNGSA,A,1,,,,,,,,,,,,,4.00,3.87,1.00,3*08
$GNGSA,A,1,,,,,,,,,,,,,4.00,3.87,1.00,4*0F
$GNGSA,A,1,04,,,,,,,,,,,,4.00,3.87,1.00,5*0A
$GNGLL,,,,,015936.00,V,N*5C
$GNRMC,015937.00,V,,,,,,,210525,,,N,V*11
$GNVTG,,,,,,,,,N*2E
$GNGGA,015937.00,,,,,0,03,3.87,,,,,,*4E
$GNGSA,A,1,07,03,,,,,,,,,,,4.00,3.87,1.00,1*0E
$GNGSA,A,1,,,,,,,,,,,,,4.00,3.87,1.00,2*09
$GNGSA,A,1,,,,,,,,,,,,,4.00,3.87,1.00,3*08
$GNGSA,A,1,,,,,,,,,,,,,4.00,3.87,1.00,4*0F
$GNGSA,A,1,04,,,,,,,,,,,,4.00,3.87,1.00,5*0A
$GNGLL,,,,,015937.00,V,N*5D
$GNRMC,015938.00,V,,,,,,,210525,,,N,V*1E
$GNVTG,,,,,,,,,N*2E
$GNGGA,015938.00,,,,,0,03,3.87,,,,,,*41
$GNGSA,A,1,07,03,,,,,,,,,,,4.00,3.87,1.00,1*0E
$GNGSA,A,1,,,,,,,,,,,,,4.00,3.87,1.00,2*09
$GNGSA,A,1,,,,,,,,,,,,,4.00,3.87,1.00,3*08
$GNGSA,A,1,,,,,,,,,,,,,4.00,3.87,1.00,4*0F
$GNGSA,A,1,04,,,,,,,,,,,,4.00,3.87,1.00,5*0A
$GNGLL,,,,,015938.00,V,N*52
$GNRMC,015939.00,V,,,,,,,210525,,,N,V*1F
$GNVTG,,,,,,,,,N*2E
$GNGGA,015939.00,,,,,0,03,3.87,,,,,,*40
$GNGSA,A,1,07,03,,,,,,,,,,,3.99,3.87,1.00,1*09
$GNGSA,A,1,,,,,,,,,,,,,3.99,3.87,1.00,2*0E
$GNGSA,A,1,,,,,,,,,,,,,3.99,3.87,1.00,3*0F
$GNGSA,A,1,,,,,,,,,,,,,3.99,3.87,1.00,4*08
$GNGSA,A,1,04,,,,,,,,,,,,3.99,3.87,1.00,5*0D
$GNGLL,,,,,015939.00,V,N*53
$GNRMC,015940.00,V,,,,,,,210525,,,N,V*11
$GNVTG,,,,,,,,,N*2E
$GNGGA,015940.00,,,,,0,03,3.87,,,,,,*4E
$GNGSA,A,1,07,03,,,,,,,,,,,3.99,3.87,1.00,1*09
$GNGSA,A,1,,,,,,,,,,,,,3.99,3.87,1.00,2*0E
$GNGSA,A,1,,,,,,,,,,,,,3.99,3.87,1.00,3*0F
$GNGSA,A,1,,,,,,,,,,,,,3.99,3.87,1.00,4*08
$GNGSA,A,1,04,,,,,,,,,,,,3.99,3.87,1.00,5*0D
$GPGSV,1,1,03,03,23,066,29,07,22,168,42,30,,,33,1*63
$GLGSV,1,1,02,78,39,141,33,,,,30,1*48
$GAGSV,1,1,00,0*74
$GBGSV,1,1,00,0*77
$GQGSV,1,1,01,04,24,124,38,1*5A
$GNGLL,,,,,015940.00,V,N*5D
$GNRMC,015941.00,V,,,,,,,210525,,,N,V*10
$GNVTG,,,,,,,,,N*2E
$GNGGA,015941.00,,,,,0,04,3.89,,,,,,*46
$GNGSA,A,1,07,03,,,,,,,,,,,6.39,3.89,5.07,1*0B
$GNGSA,A,1,78,,,,,,,,,,,,6.39,3.89,5.07,2*03
$GNGSA,A,1,,,,,,,,,,,,,6.39,3.89,5.07,3*0D
$GNGSA,A,1,,,,,,,,,,,,,6.39,3.89,5.07,4*0A
$GNGSA,A,1,04,,,,,,,,,,,,6.39,3.89,5.07,5*0F
$GNGLL,,,,,015941.00,V,N*5C
$GNRMC,015942.00,V,,,,,,,210525,,,N,V*13
$GNVTG,,,,,,,,,N*2E
$GNGGA,015942.00,,,,,0,04,3.89,,,,,,*45
$GNGSA,A,1,07,03,,,,,,,,,,,6.39,3.89,5.07,1*0B
$GNGSA,A,1,78,,,,,,,,,,,,6.39,3.89,5.07,2*03
$GNGSA,A,1,,,,,,,,,,,,,6.39,3.89,5.07,3*0D
$GNGSA,A,1,,,,,,,,,,,,,6.39,3.89,5.07,4*0A
$GNGSA,A,1,04,,,,,,,,,,,,6.39,3.89,5.07,5*0F
$GNGLL,,,,,015942.00,V,N*5F
$GNRMC,015943.00,V,,,,,,,210525,,,N,V*12
$GNVTG,,,,,,,,,N*2E
$GNGGA,015943.00,,,,,0,04,3.89,,,,,,*44
$GNGSA,A,1,07,03,,,,,,,,,,,6.39,3.89,5.07,1*0B
$GNGSA,A,1,78,,,,,,,,,,,,6.39,3.89,5.07,2*03
$GNGSA,A,1,,,,,,,,,,,,,6.39,3.89,5.07,3*0D
$GNGSA,A,1,,,,,,,,,,,,,6.39,3.89,5.07,4*0A
$GNGSA,A,1,04,,,,,,,,,,,,6.39,3.89,5.07,5*0F
$GNGLL,,,,,015943.00,V,N*5E
$GNRMC,015944.00,V,,,,,,,210525,,,N,V*15
$GNVTG,,,,,,,,,N*2E
$GNGGA,015944.00,,,,,0,04,3.89,,,,,,*43
$GNGSA,A,1,07,03,,,,,,,,,,,6.39,3.89,5.07,1*0B
$GNGSA,A,1,78,,,,,,,,,,,,6.39,3.89,5.07,2*03
$GNGSA,A,1,,,,,,,,,,,,,6.39,3.89,5.07,3*0D
$GNGSA,A,1,,,,,,,,,,,,,6.39,3.89,5.07,4*0A
$GNGSA,A,1,04,,,,,,,,,,,,6.39,3.89,5.07,5*0F
$GNGLL,,,,,015944.00,V,N*59
$GNRMC,015945.00,V,,,,,,,210525,,,N,V*14
$GNVTG,,,,,,,,,N*2E
$GNGGA,015945.00,,,,,0,04,3.89,,,,,,*42
$GNGSA,A,1,07,03,,,,,,,,,,,6.39,3.89,5.07,1*0B
$GNGSA,A,1,78,,,,,,,,,,,,6.39,3.89,5.07,2*03
$GNGSA,A,1,,,,,,,,,,,,,6.39,3.89,5.07,3*0D
$GNGSA,A,1,,,,,,,,,,,,,6.39,3.89,5.07,4*0A
$GNGSA,A,1,04,,,,,,,,,,,,6.39,3.89,5.07,5*0F
$GPGSV,1,1,03,03,23,066,28,07,22,168,42,30,,,33,1*62
$GLGSV,1,1,02,78,39,141,33,,,,30,1*48
$GAGSV,1,1,00,0*74
$GBGSV,1,1,00,0*77
$GQGSV,1,1,01,04,24,124,38,1*5A
$GNGLL,,,,,015945.00,V,N*58
$GNRMC,015946.00,V,,,,,,,210525,,,N,V*17
$GNVTG,,,,,,,,,N*2E
$GNGGA,015946.00,,,,,0,04,3.89,,,,,,*41
$GNGSA,A,1,07,03,,,,,,,,,,,6.40,3.89,5.07,1*05
$GNGSA,A,1,78,,,,,,,,,,,,6.40,3.89,5.07,2*0D
$GNGSA,A,1,,,,,,,,,,,,,6.40,3.89,5.07,3*03
$GNGSA,A,1,,,,,,,,,,,,,6.40,3.89,5.07,4*04
$GNGSA,A,1,04,,,,,,,,,,,,6.40,3.89,5.07,5*01
$GNGLL,,,,,015946.00,V,N*5B
$GNRMC,015947.00,V,,,,,,,210525,,,N,V*16
$GNVTG,,,,,,,,,N*2E
$GNGGA,015947.00,,,,,0,04,3.89,,,,,,*40
$GNGSA,A,1,07,03,,,,,,,,,,,6.40,3.89,5.08,1*0A
$GNGSA,A,1,78,,,,,,,,,,,,6.40,3.89,5.08,2*02
$GNGSA,A,1,,,,,,,,,,,,,6.40,3.89,5.08,3*0C
$GNGSA,A,1,,,,,,,,,,,,,6.40,3.89,5.08,4*0B
$GNGSA,A,1,04,,,,,,,,,,,,6.40,3.89,5.08,5*0E
$GNGLL,,,,,015947.00,V,N*5A
$GNRMC,015948.00,V,,,,,,,210525,,,N,V*19
$GNVTG,,,,,,,,,N*2E
$GNGGA,015948.00,,,,,0,04,3.89,,,,,,*4F
$GNGSA,A,1,07,03,,,,,,,,,,,6.40,3.89,5.08,1*0A
$GNGSA,A,1,78,,,,,,,,,,,,6.40,3.89,5.08,2*02
$GNGSA,A,1,,,,,,,,,,,,,6.40,3.89,5.08,3*0C
$GNGSA,A,1,,,,,,,,,,,,,6.40,3.89,5.08,4*0B
$GNGSA,A,1,04,,,,,,,,,,,,6.40,3.89,5.08,5*0E
$GNGLL,,,,,015948.00,V,N*55
$GNRMC,015949.00,V,,,,,,,210525,,,N,V*18
$GNVTG,,,,,,,,,N*2E
$GNGGA,015949.00,,,,,0,04,3.89,,,,,,*4E
$GNGSA,A,1,07,03,,,,,,,,,,,6.40,3.89,5.08,1*0A
$GNGSA,A,1,78,,,,,,,,,,,,6.40,3.89,5.08,2*02
$GNGSA,A,1,,,,,,,,,,,,,6.40,3.89,5.08,3*0C
$GNGSA,A,1,,,,,,,,,,,,,6.40,3.89,5.08,4*0B
$GNGSA,A,1,04,,,,,,,,,,,,6.40,3.89,5.08,5*0E
$GNGLL,,,,,015949.00,V,N*54
$GNRMC,015950.00,V,,,,,,,210525,,,N,V*10
$GNVTG,,,,,,,,,N*2E
$GNGGA,015950.00,,,,,0,04,3.89,,,,,,*46
$GNGSA,A,1,07,03,,,,,,,,,,,6.40,3.89,5.08,1*0A
$GNGSA,A,1,78,,,,,,,,,,,,6.40,3.89,5.08,2*02
$GNGSA,A,1,,,,,,,,,,,,,6.40,3.89,5.08,3*0C
$GNGSA,A,1,,,,,,,,,,,,,6.40,3.89,5.08,4*0B
$GNGSA,A,1,04,,,,,,,,,,,,6.40,3.89,5.08,5*0E
$GPGSV,1,1,03,03,23,066,28,07,22,168,42,30,,,33,1*62
$GLGSV,1,1,02,78,39,141,33,,,,30,1*48
$GAGSV,1,1,00,0*74
$GBGSV,1,1,00,0*77
$GQGSV,1,1,01,04,24,124,38,1*5A
$GNGLL,,,,,015950.00,V,N*5C
$GNRMC,015951.00,V,,,,,,,210525,,,N,V*11
$GNVTG,,,,,,,,,N*2E
$GNGGA,015951.00,,,,,0,04,3.89,,,,,,*47
$GNGSA,A,1,07,03,,,,,,,,,,,6.40,3.89,5.08,1*0A
$GNGSA,A,1,78,,,,,,,,,,,,6.40,3.89,5.08,2*02
$GNGSA,A,1,,,,,,,,,,,,,6.40,3.89,5.08,3*0C
$GNGSA,A,1,,,,,,,,,,,,,6.40,3.89,5.08,4*0B
$GNGSA,A,1,04,,,,,,,,,,,,6.40,3.89,5.08,5*0E
$GNGLL,,,,,015951.00,V,N*5D
$GNRMC,015952.00,V,,,,,,,210525,,,N,V*12
$GNVTG,,,,,,,,,N*2E
$GNGGA,015952.00,,,,,0,04,3.89,,,,,,*44
$GNGSA,A,1,07,03,,,,,,,,,,,6.40,3.89,5.08,1*0A
$GNGSA,A,1,78,,,,,,,,,,,,6.40,3.89,5.08,2*02
$GNGSA,A,1,,,,,,,,,,,,,6.40,3.89,5.08,3*0C
$GNGSA,A,1,,,,,,,,,,,,,6.40,3.89,5.08,4*0B
$GNGSA,A,1,04,,,,,,,,,,,,6.40,3.89,5.08,5*0E
$GNGLL,,,,,015952.00,V,N*5E
$GNRMC,015953.00,V,,,,,,,210525,,,N,V*13
$GNVTG,,,,,,,,,N*2E
$GNGGA,015953.00,,,,,0,04,3.89,,,,,,*45
$GNGSA,A,1,07,03,,,,,,,,,,,6.40,3.89,5.08,1*0A
$GNGSA,A,1,78,,,,,,,,,,,,6.40,3.89,5.08,2*02
$GNGSA,A,1,,,,,,,,,,,,,6.40,3.89,5.08,3*0C
$GNGSA,A,1,,,,,,,,,,,,,6.40,3.89,5.08,4*0B
$GNGSA,A,1,04,,,,,,,,,,,,6.40,3.89,5.08,5*0E
$GNGLL,,,,,015953.00,V,N*5F
$GNRMC,015954.00,V,,,,,,,210525,,,N,V*14
$GNVTG,,,,,,,,,N*2E
$GNGGA,015954.00,,,,,0,04,3.89,,,,,,*42
$GNGSA,A,1,07,03,,,,,,,,,,,6.40,3.89,5.08,1*0A
$GNGSA,A,1,78,,,,,,,,,,,,6.40,3.89,5.08,2*02
$GNGSA,A,1,,,,,,,,,,,,,6.40,3.89,5.08,3*0C
$GNGSA,A,1,,,,,,,,,,,,,6.40,3.89,5.08,4*0B
$GNGSA,A,1,04,,,,,,,,,,,,6.40,3.89,5.08,5*0E
$GNGLL,,,,,015954.00,V,N*58
$GNRMC,015955.00,V,,,,,,,210525,,,N,V*15
$GNVTG,,,,,,,,,N*2E
$GNGGA,015955.00,,,,,0,04,3.89,,,,,,*43
$GNGSA,A,1,07,03,,,,,,,,,,,6.41,3.89,5.09,1*0A
$GNGSA,A,1,78,,,,,,,,,,,,6.41,3.89,5.09,2*02
$GNGSA,A,1,,,,,,,,,,,,,6.41,3.89,5.09,3*0C
$GNGSA,A,1,,,,,,,,,,,,,6.41,3.89,5.09,4*0B
$GNGSA,A,1,04,,,,,,,,,,,,6.41,3.89,5.09,5*0E
$GPGSV,1,1,03,03,23,066,26,07,22,168,42,30,,,34,1*6B
$GLGSV,1,1,02,78,39,142,33,,,,29,1*43
$GAGSV,1,1,00,0*74
$GBGSV,1,1,00,0*77
$GQGSV,1,1,01,04,24,124,38,1*5A
$GNGLL,,,,,015955.00,V,N*59
$GNRMC,015956.00,V,,,,,,,210525,,,N,V*16
$GNVTG,,,,,,,,,N*2E
$GNGGA,015956.00,,,,,0,04,3.89,,,,,,*40
$GNGSA,A,1,07,03,,,,,,,,,,,6.41,3.89,5.09,1*0A
$GNGSA,A,1,78,,,,,,,,,,,,6.41,3.89,5.09,2*02
$GNGSA,A,1,,,,,,,,,,,,,6.41,3.89,5.09,3*0C
$GNGSA,A,1,,,,,,,,,,,,,6.41,3.89,5.09,4*0B
$GNGSA,A,1,04,,,,,,,,,,,,6.41,3.89,5.09,5*0E
$GNGLL,,,,,015956.00,V,N*5A
$GNRMC,015957.00,V,,,,,,,210525,,,N,V*17
$GNVTG,,,,,,,,,N*2E
$GNGGA,015957.00,,,,,0,04,3.90,,,,,,*49
$GNGSA,A,1,07,03,,,,,,,,,,,6.41,3.90,5.09,1*02
$GNGSA,A,1,78,,,,,,,,,,,,6.41,3.90,5.09,2*0A
$GNGSA,A,1,,,,,,,,,,,,,6.41,3.90,5.09,3*04
$GNGSA,A,1,,,,,,,,,,,,,6.41,3.90,5.09,4*03
$GNGSA,A,1,04,,,,,,,,,,,,6.41,3.90,5.09,5*06
$GNGLL,,,,,015957.00,V,N*5B
$GNRMC,015958.00,V,,,,,,,210525,,,N,V*18
$GNVTG,,,,,,,,,N*2E
$GNGGA,015958.00,,,,,0,04,3.90,,,,,,*46
$GNGSA,A,1,07,03,,,,,,,,,,,6.41,3.90,5.09,1*02
$GNGSA,A,1,78,,,,,,,,,,,,6.41,3.90,5.09,2*0A
$GNGSA,A,1,,,,,,,,,,,,,6.41,3.90,5.09,3*04
$GNGSA,A,1,,,,,,,,,,,,,6.41,3.90,5.09,4*03
$GNGSA,A,1,04,,,,,,,,,,,,6.41,3.90,5.09,5*06
$GNGLL,,,,,015958.00,V,N*54
$GNRMC,015959.00,V,,,,,,,210525,,,N,V*19
$GNVTG,,,,,,,,,N*2E
$GNGGA,015959.00,,,,,0,04,3.90,,,,,,*47
$GNGSA,A,1,07,03,,,,,,,,,,,6.41,3.90,5.09,1*02
$GNGSA,A,1,78,,,,,,,,,,,,6.41,3.90,5.09,2*0A
$GNGSA,A,1,,,,,,,,,,,,,6.41,3.90,5.09,3*04
$GNGSA,A,1,,,,,,,,,,,,,6.41,3.90,5.09,4*03
$GNGSA,A,1,04,,,,,,,,,,,,6.41,3.90,5.09,5*06
$GNGLL,,,,,015959.00,V,N*55
$GNRMC,020000.00,V,,,,,,,210525,,,N,V*1A
$GNVTG,,,,,,,,,N*2E
$GNGGA,020000.00,,,,,0,04,3.90,,,,,,*44
$GNGSA,A,1,07,03,,,,,,,,,,,6.41,3.90,5.09,1*02
$GNGSA,A,1,78,,,,,,,,,,,,6.41,3.90,5.09,2*0A
$GNGSA,A,1,,,,,,,,,,,,,6.41,3.90,5.09,3*04
$GNGSA,A,1,,,,,,,,,,,,,6.41,3.90,5.09,4*03
$GNGSA,A,1,04,,,,,,,,,,,,6.41,3.90,5.09,5*06
$GPGSV,1,1,03,03,23,066,24,07,22,168,42,30,,,33,1*6E
$GLGSV,1,1,02,78,39,142,33,,,,28,1*42
$GAGSV,1,1,00,0*74
$GBGSV,1,1,00,0*77
$GQGSV,1,1,01,04,24,124,38,1*5A
$GNGLL,,,,,020000.00,V,N*56
$GNRMC,020001.00,V,,,,,,,210525,,,N,V*1B
$GNVTG,,,,,,,,,N*2E
$GNGGA,020001.00,,,,,0,05,2.43,,,,,,*4B
$GNGSA,A,1,07,03,30,,,,,,,,,,4.92,2.43,4.28,1*00
$GNGSA,A,1,78,,,,,,,,,,,,4.92,2.43,4.28,2*0B
$GNGSA,A,1,,,,,,,,,,,,,4.92,2.43,4.28,3*05
$GNGSA,A,1,,,,,,,,,,,,,4.92,2.43,4.28,4*02
$GNGSA,A,1,04,,,,,,,,,,,,4.92,2.43,4.28,5*07
$GNGLL,,,,,020001.00,V,N*57
$GNRMC,020002.00,V,,,,,,,210525,,,N,V*18
$GNVTG,,,,,,,,,N*2E
$GNGGA,020002.00,,,,,0,05,2.43,,,,,,*48
$GNGSA,A,1,07,03,30,,,,,,,,,,4.92,2.43,4.28,1*00
$GNGSA,A,1,78,,,,,,,,,,,,4.92,2.43,4.28,2*0B
$GNGSA,A,1,,,,,,,,,,,,,4.92,2.43,4.28,3*05
$GNGSA,A,1,,,,,,,,,,,,,4.92,2.43,4.28,4*02
$GNGSA,A,1,04,,,,,,,,,,,,4.92,2.43,4.28,5*07
$GNGLL,,,,,020002.00,V,N*54
$GNRMC,020003.00,V,,,,,,,210525,,,N,V*19
$GNVTG,,,,,,,,,N*2E
$GNGGA,020003.00,,,,,0,05,2.43,,,,,,*49
$GNGSA,A,1,07,03,30,,,,,,,,,,4.92,2.43,4.28,1*00
$GNGSA,A,1,78,,,,,,,,,,,,4.92,2.43,4.28,2*0B
$GNGSA,A,1,,,,,,,,,,,,,4.92,2.43,4.28,3*05
$GNGSA,A,1,,,,,,,,,,,,,4.92,2.43,4.28,4*02
$GNGSA,A,1,04,,,,,,,,,,,,4.92,2.43,4.28,5*07
$GNGLL,,,,,020003.00,V,N*55
$GNRMC,020004.00,V,,,,,,,210525,,,N,V*1E
$GNVTG,,,,,,,,,N*2E
$GNGGA,020004.00,,,,,0,05,2.43,,,,,,*4E
$GNGSA,A,1,07,03,30,,,,,,,,,,4.92,2.43,4.28,1*00
$GNGSA,A,1,78,,,,,,,,,,,,4.92,2.43,4.28,2*0B
$GNGSA,A,1,,,,,,,,,,,,,4.92,2.43,4.28,3*05
$GNGSA,A,1,,,,,,,,,,,,,4.92,2.43,4.28,4*02
$GNGSA,A,1,04,,,,,,,,,,,,4.92,2.43,4.28,5*07
$GNGLL,,,,,020004.00,V,N*52
$GNRMC,020005.00,V,,,,,,,210525,,,N,V*1F
$GNVTG,,,,,,,,,N*2E
$GNGGA,020005.00,,,,,0,05,2.43,,,,,,*4F
$GNGSA,A,1,07,03,30,,,,,,,,,,4.92,2.43,4.28,1*00
$GNGSA,A,1,78,,,,,,,,,,,,4.92,2.43,4.28,2*0B
$GNGSA,A,1,,,,,,,,,,,,,4.92,2.43,4.28,3*05
$GNGSA,A,1,,,,,,,,,,,,,4.92,2.43,4.28,4*02
$GNGSA,A,1,04,,,,,,,,,,,,4.92,2.43,4.28,5*07
$GPGSV,1,1,03,03,23,066,22,07,22,168,42,30,48,199,33,1*55
$GLGSV,1,1,02,78,39,142,33,,,,27,1*4D
$GAGSV,1,1,00,0*74
$GBGSV,1,1,00,0*77
$GQGSV,1,1,01,04,24,124,38,1*5A
$GNGLL,,,,,020005.00,V,N*53
$GNRMC,020006.00,V,,,,,,,210525,,,N,V*1C
$GNVTG,,,,,,,,,N*2E
$GNGGA,020006.00,,,,,0,05,2.43,,,,,,*4C
$GNGSA,A,1,07,03,30,,,,,,,,,,4.92,2.43,4.28,1*00
$GNGSA,A,1,78,,,,,,,,,,,,4.92,2.43,4.28,2*0B
$GNGSA,A,1,,,,,,,,,,,,,4.92,2.43,4.28,3*05
$GNGSA,A,1,,,,,,,,,,,,,4.92,2.43,4.28,4*02
$GNGSA,A,1,04,,,,,,,,,,,,4.92,2.43,4.28,5*07
$GNGLL,,,,,020006.00,V,N*50
$GNRMC,020007.00,V,,,,,,,210525,,,N,V*1D
$GNVTG,,,,,,,,,N*2E
$GNGGA,020007.00,,,,,0,05,2.43,,,,,,*4D
$GNGSA,A,1,07,03,30,,,,,,,,,,4.92,2.43,4.28,1*00
$GNGSA,A,1,78,,,,,,,,,,,,4.92,2.43,4.28,2*0B
$GNGSA,A,1,,,,,,,,,,,,,4.92,2.43,4.28,3*05
$GNGSA,A,1,,,,,,,,,,,,,4.92,2.43,4.28,4*02
$GNGSA,A,1,04,,,,,,,,,,,,4.92,2.43,4.28,5*07
$GNGLL,,,,,020007.00,V,N*51
$GNRMC,020008.00,V,,,,,,,210525,,,N,V*12
$GNVTG,,,,,,,,,N*2E
$GNGGA,020008.00,,,,,0,05,2.43,,,,,,*42
$GNGSA,A,1,07,03,30,,,,,,,,,,4.92,2.43,4.28,1*00
$GNGSA,A,1,78,,,,,,,,,,,,4.92,2.43,4.28,2*0B
$GNGSA,A,1,,,,,,,,,,,,,4.92,2.43,4.28,3*05
$GNGSA,A,1,,,,,,,,,,,,,4.92,2.43,4.28,4*02
$GNGSA,A,1,04,,,,,,,,,,,,4.92,2.43,4.28,5*07
$GNGLL,,,,,020008.00,V,N*5E
$GNRMC,020009.00,V,,,,,,,210525,,,N,V*13
$GNVTG,,,,,,,,,N*2E
$GNGGA,020009.00,,,,,0,05,2.43,,,,,,*43
$GNGSA,A,1,07,03,30,,,,,,,,,,4.92,2.43,4.28,1*00
$GNGSA,A,1,78,,,,,,,,,,,,4.92,2.43,4.28,2*0B
$GNGSA,A,1,,,,,,,,,,,,,4.92,2.43,4.28,3*05
$GNGSA,A,1,,,,,,,,,,,,,4.92,2.43,4.28,4*02
$GNGSA,A,1,04,,,,,,,,,,,,4.92,2.43,4.28,5*07
$GNGLL,,,,,020009.00,V,N*5F
$GNRMC,020010.00,V,,,,,,,210525,,,N,V*1B
$GNVTG,,,,,,,,,N*2E
$GNGGA,020010.00,,,,,0,05,2.43,,,,,,*4B
$GNGSA,A,1,07,03,30,,,,,,,,,,4.92,2.43,4.28,1*00
$GNGSA,A,1,78,,,,,,,,,,,,4.92,2.43,4.28,2*0B
$GNGSA,A,1,,,,,,,,,,,,,4.92,2.43,4.28,3*05
$GNGSA,A,1,,,,,,,,,,,,,4.92,2.43,4.28,4*02
$GNGSA,A,1,04,,,,,,,,,,,,4.92,2.43,4.28,5*07
$GPGSV,1,1,03,03,23,066,22,07,22,168,42,30,48,199,33,1*55
$GLGSV,1,1,02,67,02,138,28,78,39,142,33,1*7B
$GAGSV,1,1,00,0*74
$GBGSV,1,1,00,0*77
$GQGSV,1,1,01,04,24,124,38,1*5A
$GNGLL,,,,,020010.00,V,N*57
$GNRMC,020011.00,A,1349.44437,N,10025.38984,E,0.112,,210525,,,A,V*12
$GNVTG,,T,,M,0.112,N,0.208,K,A*35
$GNGGA,020011.00,1349.44437,N,10025.38984,E,1,05,2.43,44.1,M,-28.3,M,,*52
$GNGSA,A,3,07,03,30,,,,,,,,,,4.92,2.43,4.28,1*02
$GNGSA,A,3,78,,,,,,,,,,,,4.92,2.43,4.28,2*09
$GNGSA,A,3,,,,,,,,,,,,,4.92,2.43,4.28,3*07
$GNGSA,A,3,,,,,,,,,,,,,4.92,2.43,4.28,4*00
$GNGSA,A,3,04,,,,,,,,,,,,4.92,2.43,4.28,5*05
$GNGLL,1349.44437,N,10025.38984,E,020011.00,A,A*72
$GNRMC,020012.00,A,1349.44428,N,10025.38999,E,0.046,,210525,,,A,V*13
$GNVTG,,T,,M,0.046,N,0.086,K,A*31
$GNGGA,020012.00,1349.44428,N,10025.38999,E,1,05,2.43,45.5,M,-28.3,M,,*56
$GNGSA,A,3,07,03,30,,,,,,,,,,4.92,2.43,4.28,1*02
$GNGSA,A,3,78,,,,,,,,,,,,4.92,2.43,4.28,2*09
$GNGSA,A,3,,,,,,,,,,,,,4.92,2.43,4.28,3*07
$GNGSA,A,3,,,,,,,,,,,,,4.92,2.43,4.28,4*00
$GNGSA,A,3,04,,,,,,,,,,,,4.92,2.43,4.28,5*05
$GNGLL,1349.44428,N,10025.38999,E,020012.00,A,A*73
$GNRMC,020013.00,A,1349.44402,N,10025.39023,E,0.275,,210525,,,A,V*11
$GNVTG,,T,,M,0.275,N,0.510,K,A*39
$GNGGA,020013.00,1349.44402,N,10025.39023,E,1,05,2.43,46.3,M,-28.3,M,,*53
$GNGSA,A,3,07,03,30,,,,,,,,,,4.92,2.43,4.28,1*02
$GNGSA,A,3,78,,,,,,,,,,,,4.92,2.43,4.28,2*09
$GNGSA,A,3,,,,,,,,,,,,,4.92,2.43,4.28,3*07
$GNGSA,A,3,,,,,,,,,,,,,4.92,2.43,4.28,4*00
$GNGSA,A,3,04,,,,,,,,,,,,4.92,2.43,4.28,5*05
$GNGLL,1349.44402,N,10025.39023,E,020013.00,A,A*73
$GNRMC,020014.00,A,1349.44394,N,10025.39035,E,0.208,,210525,,,A,V*13
$GNVTG,,T,,M,0.208,N,0.384,K,A*38
$GNGGA,020014.00,1349.44394,N,10025.39035,E,1,05,2.43,46.6,M,-28.3,M,,*5E
$GNGSA,A,3,07,03,30,,,,,,,,,,4.92,2.43,4.28,1*02
$GNGSA,A,3,78,,,,,,,,,,,,4.92,2.43,4.28,2*09
$GNGSA,A,3,,,,,,,,,,,,,4.92,2.43,4.28,3*07
$GNGSA,A,3,,,,,,,,,,,,,4.92,2.43,4.28,4*00
$GNGSA,A,3,04,,,,,,,,,,,,4.92,2.43,4.28,5*05
$GNGLL,1349.44394,N,10025.39035,E,020014.00,A,A*7B
$GNRMC,020015.00,A,1349.44402,N,10025.39035,E,0.158,,210525,,,A,V*1C
$GNVTG,,T,,M,0.158,N,0.292,K,A*38
$GNGGA,020015.00,1349.44402,N,10025.39035,E,1,05,2.43,46.5,M,-28.3,M,,*54
$GNGSA,A,3,07,03,30,,,,,,,,,,4.92,2.43,4.28,1*02
$GNGSA,A,3,78,,,,,,,,,,,,4.92,2.43,4.28,2*09
$GNGSA,A,3,,,,,,,,,,,,,4.92,2.43,4.28,3*07
$GNGSA,A,3,,,,,,,,,,,,,4.92,2.43,4.28,4*00
$GNGSA,A,3,04,,,,,,,,,,,,4.92,2.43,4.28,5*05
$GPGSV,1,1,03,03,23,066,22,07,22,168,41,30,48,199,33,1*56
$GPGSV,1,1,01,06,57,241,,0*57
$GLGSV,1,1,02,67,02,138,29,78,39,142,33,1*7A
$GAGSV,1,1,00,0*74
$GBGSV,1,1,00,0*77
$GQGSV,1,1,01,04,24,124,38,1*5A
$GNGLL,1349.44402,N,10025.39035,E,020015.00,A,A*72
$GNRMC,020016.00,A,1349.44438,N,10025.39019,E,0.314,,210525,,,A,V*12
$GNVTG,,T,,M,0.314,N,0.582,K,A*34
$GNGGA,020016.00,1349.44438,N,10025.39019,E,1,05,2.43,45.9,M,-28.3,M,,*5F
$GNGSA,A,3,07,03,30,,,,,,,,,,4.92,2.43,4.28,1*02
$GNGSA,A,3,78,,,,,,,,,,,,4.92,2.43,4.28,2*09
$GNGSA,A,3,,,,,,,,,,,,,4.92,2.43,4.28,3*07
$GNGSA,A,3,,,,,,,,,,,,,4.92,2.43,4.28,4*00
$GNGSA,A,3,04,,,,,,,,,,,,4.92,2.43,4.28,5*05
$GNGLL,1349.44438,N,10025.39019,E,020016.00,A,A*76
$GNRMC,020017.00,A,1349.44449,N,10025.39019,E,0.311,,210525,,,A,V*10
$GNVTG,,T,,M,0.311,N,0.576,K,A*3A
$GNGGA,020017.00,1349.44449,N,10025.39019,E,1,05,2.43,46.0,M,-28.3,M,,*52
$GNGSA,A,3,07,03,30,,,,,,,,,,4.92,2.43,4.28,1*02
$GNGSA,A,3,78,,,,,,,,,,,,4.92,2.43,4.28,2*09
$GNGSA,A,3,,,,,,,,,,,,,4.92,2.43,4.28,3*07
$GNGSA,A,3,,,,,,,,,,,,,4.92,2.43,4.28,4*00
$GNGSA,A,3,04,,,,,,,,,,,,4.92,2.43,4.28,5*05
$GNGLL,1349.44449,N,10025.39019,E,020017.00,A,A*71
$GNRMC,020018.00,A,1349.44451,N,10025.39021,E,0.348,,210525,,,A,V*11
$GNVTG,,T,,M,0.348,N,0.645,K,A*35
$GNGGA,020018.00,1349.44451,N,10025.39021,E,1,05,2.43,46.1,M,-28.3,M,,*5E
$GNGSA,A,3,07,03,30,,,,,,,,,,4.92,2.43,4.28,1*02
$GNGSA,A,3,78,,,,,,,,,,,,4.92,2.43,4.28,2*09
$GNGSA,A,3,,,,,,,,,,,,,4.92,2.43,4.28,3*07
$GNGSA,A,3,,,,,,,,,,,,,4.92,2.43,4.28,4*00
$GNGSA,A,3,04,,,,,,,,,,,,4.92,2.43,4.28,5*05
$GNGLL,1349.44451,N,10025.39021,E,020018.00,A,A*7C
$GNRMC,020019.00,A,1349.44427,N,10025.39036,E,0.092,,210525,,,A,V*13
$GNVTG,,T,,M,0.092,N,0.171,K,A*31
$GNGGA,020019.00,1349.44427,N,10025.39036,E,1,05,2.42,46.5,M,-28.3,M,,*5D
$GNGSA,A,3,07,03,30,,,,,,,,,,4.92,2.42,4.28,1*03
$GNGSA,A,3,78,,,,,,,,,,,,4.92,2.42,4.28,2*08
$GNGSA,A,3,,,,,,,,,,,,,4.92,2.42,4.28,3*06
$GNGSA,A,3,,,,,,,,,,,,,4.92,2.42,4.28,4*01
$GNGSA,A,3,04,,,,,,,,,,,,4.92,2.42,4.28,5*04
$GNGLL,1349.44427,N,10025.39036,E,020019.00,A,A*7A
$GNRMC,020020.00,A,1349.44408,N,10025.39047,E,0.077,,210525,,,A,V*19
$GNVTG,,T,,M,0.077,N,0.143,K,A*3B
$GNGGA,020020.00,1349.44408,N,10025.39047,E,1,05,2.42,46.9,M,-28.3,M,,*50
$GNGSA,A,3,07,03,30,,,,,,,,,,4.92,2.42,4.28,1*03
$GNGSA,A,3,78,,,,,,,,,,,,4.92,2.42,4.28,2*08
$GNGSA,A,3,,,,,,,,,,,,,4.92,2.42,4.28,3*06
$GNGSA,A,3,,,,,,,,,,,,,4.92,2.42,4.28,4*01
$GNGSA,A,3,04,,,,,,,,,,,,4.92,2.42,4.28,5*04
$GPGSV,1,1,03,03,23,066,19,07,22,168,40,30,48,199,34,1*58
$GPGSV,1,1,01,06,57,241,,0*57
$GLGSV,1,1,02,67,02,138,29,78,39,142,33,1*7A
$GAGSV,1,1,00,0*74
$GBGSV,1,1,00,0*77
$GQGSV,1,1,01,04,24,124,38,1*5A
$GNGLL,1349.44408,N,10025.39047,E,020020.00,A,A*7B
$GNRMC,020021.00,A,1349.44398,N,10025.39052,E,0.089,,210525,,,A,V*13
$GNVTG,,T,,M,0.089,N,0.164,K,A*3F
$GNGGA,020021.00,1349.44398,N,10025.39052,E,1,05,2.42,46.9,M,-28.3,M,,*5B
$GNGSA,A,3,07,03,30,,,,,,,,,,4.92,2.42,4.28,1*03
$GNGSA,A,3,78,,,,,,,,,,,,4.92,2.42,4.28,2*08
$GNGSA,A,3,,,,,,,,,,,,,4.92,2.42,4.28,3*06
$GNGSA,A,3,,,,,,,,,,,,,4.92,2.42,4.28,4*01
$GNGSA,A,3,04,,,,,,,,,,,,4.92,2.42,4.28,5*04
$GNGLL,1349.44398,N,10025.39052,E,020021.00,A,A*70
$GNRMC,020022.00,A,1349.44376,N,10025.39064,E,0.226,,210525,,,A,V*12
$GNVTG,,T,,M,0.226,N,0.419,K,A*37
$GNGGA,020022.00,1349.44376,N,10025.39064,E,1,05,2.42,47.3,M,-28.3,M,,*56
$GNGSA,A,3,07,03,30,,,,,,,,,,4.92,2.42,4.28,1*03
$GNGSA,A,3,78,,,,,,,,,,,,4.92,2.42,4.28,2*08
$GNGSA,A,3,,,,,,,,,,,,,4.92,2.42,4.28,3*06
$GNGSA,A,3,,,,,,,,,,,,,4.92,2.42,4.28,4*01
$GNGSA,A,3,04,,,,,,,,,,,,4.92,2.42,4.28,5*04
$GNGLL,1349.44376,N,10025.39064,E,020022.00,A,A*76
$GNRMC,020023.00,A,1349.44344,N,10025.39079,E,0.432,,210525,,,A,V*1D
$GNVTG,,T,,M,0.432,N,0.800,K,A*30
$GNGGA,020023.00,1349.44344,N,10025.39079,E,1,05,2.42,47.7,M,-28.3,M,,*5E
$GNGSA,A,3,07,03,30,,,,,,,,,,4.92,2.42,4.28,1*03
$GNGSA,A,3,78,,,,,,,,,,,,4.92,2.42,4.28,2*08
$GNGSA,A,3,,,,,,,,,,,,,4.92,2.42,4.28,3*06
$GNGSA,A,3,,,,,,,,,,,,,4.92,2.42,4.28,4*01
$GNGSA,A,3,04,,,,,,,,,,,,4.92,2.42,4.28,5*04
$GNGLL,1349.44344,N,10025.39079,E,020023.00,A,A*7A
$GNRMC,020024.00,A,1349.44344,N,10025.39078,E,0.224,,210525,,,A,V*1A
$GNVTG,,T,,M,0.224,N,0.415,K,A*39
$GNGGA,020024.00,1349.44344,N,10025.39078,E,1,05,2.42,47.5,M,-28.3,M,,*5A
$GNGSA,A,3,07,03,30,,,,,,,,,,4.92,2.42,4.28,1*03
$GNGSA,A,3,78,,,,,,,,,,,,4.92,2.42,4.28,2*08
$GNGSA,A,3,,,,,,,,,,,,,4.92,2.42,4.28,3*06
$GNGSA,A,3,,,,,,,,,,,,,4.92,2.42,4.28,4*01
$GNGSA,A,3,04,,,,,,,,,,,,4.92,2.42,4.28,5*04
$GNGLL,1349.44344,N,10025.39078,E,020024.00,A,A*7C
$GNRMC,020025.00,A,1349.44342,N,10025.39078,E,0.327,,210525,,,A,V*1F
$GNVTG,,T,,M,0.327,N,0.605,K,A*38
$GNGGA,020025.00,1349.44342,N,10025.39078,E,1,05,2.42,47.2,M,-28.3,M,,*5A
$GNGSA,A,3,07,03,30,,,,,,,,,,4.92,2.42,4.28,1*03
$GNGSA,A,3,78,,,,,,,,,,,,4.92,2.42,4.28,2*08
$GNGSA,A,3,,,,,,,,,,,,,4.92,2.42,4.28,3*06
$GNGSA,A,3,,,,,,,,,,,,,4.92,2.42,4.28,4*01
$GNGSA,A,3,04,,,,,,,,,,,,4.92,2.42,4.28,5*04
$GPGSV,1,1,03,03,23,066,18,07,22,168,40,30,48,199,34,1*59
$GPGSV,1,1,01,06,57,241,,0*57
$GLGSV,1,1,02,67,02,138,29,78,39,142,34,1*7D
$GAGSV,1,1,00,0*74
$GBGSV,1,1,00,0*77
$GQGSV,1,1,01,04,24,124,38,1*5A
$GNGLL,1349.44342,N,10025.39078,E,020025.00,A,A*7B
$GNRMC,020026.00,A,1349.44334,N,10025.39081,E,0.274,,210525,,,A,V*1C
$GNVTG,,T,,M,0.274,N,0.507,K,A*3E
$GNGGA,020026.00,1349.44334,N,10025.39081,E,1,05,2.42,47.1,M,-28.3,M,,*5D
$GNGSA,A,3,07,03,30,,,,,,,,,,4.92,2.42,4.28,1*03
$GNGSA,A,3,78,,,,,,,,,,,,4.92,2.42,4.28,2*08
$GNGSA,A,3,,,,,,,,,,,,,4.92,2.42,4.28,3*06
$GNGSA,A,3,,,,,,,,,,,,,4.92,2.42,4.28,4*01
$GNGSA,A,3,04,,,,,,,,,,,,4.92,2.42,4.28,5*04
$GNGLL,1349.44334,N,10025.39081,E,020026.00,A,A*7F
$GNRMC,020027.00,A,1349.44337,N,10025.39079,E,0.126,,210525,,,A,V*1D
$GNVTG,,T,,M,0.126,N,0.233,K,A*3A
$GNGGA,020027.00,1349.44337,N,10025.39079,E,1,05,2.42,46.8,M,-28.3,M,,*50
$GNGSA,A,3,07,03,30,,,,,,,,,,4.92,2.42,4.28,1*03
$GNGSA,A,3,78,,,,,,,,,,,,4.92,2.42,4.28,2*08
$GNGSA,A,3,,,,,,,,,,,,,4.92,2.42,4.28,3*06
$GNGSA,A,3,,,,,,,,,,,,,4.92,2.42,4.28,4*01
$GNGSA,A,3,04,,,,,,,,,,,,4.92,2.42,4.28,5*04
$GNGLL,1349.44337,N,10025.39079,E,020027.00,A,A*7A
$GNRMC,020028.00,A,1349.44351,N,10025.39071,E,0.042,,210525,,,A,V*19
$GNVTG,,T,,M,0.042,N,0.078,K,A*34
$GNGGA,020028.00,1349.44351,N,10025.39071,E,1,05,2.42,46.4,M,-28.3,M,,*5B
$GNGSA,A,3,07,03,30,,,,,,,,,,4.91,2.42,4.28,1*00
$GNGSA,A,3,78,,,,,,,,,,,,4.91,2.42,4.28,2*0B
$GNGSA,A,3,,,,,,,,,,,,,4.91,2.42,4.28,3*05
$GNGSA,A,3,,,,,,,,,,,,,4.91,2.42,4.28,4*02
$GNGSA,A,3,04,,,,,,,,,,,,4.91,2.42,4.28,5*07
$GNGLL,1349.44351,N,10025.39071,E,020028.00,A,A*7D
$GNRMC,020029.00,A,1349.44367,N,10025.39063,E,0.212,,210525,,,A,V*19
$GNVTG,,T,,M,0.212,N,0.393,K,A*35
$GNGGA,020029.00,1349.44367,N,10025.39063,E,1,05,2.42,46.0,M,-28.3,M,,*58
$GNGSA,A,3,07,03,30,,,,,,,,,,4.91,2.42,4.28,1*00
$GNGSA,A,3,78,,,,,,,,,,,,4.91,2.42,4.28,2*0B
$GNGSA,A,3,,,,,,,,,,,,,4.91,2.42,4.28,3*05
$GNGSA,A,3,,,,,,,,,,,,,4.91,2.42,4.28,4*02
$GNGSA,A,3,04,,,,,,,,,,,,4.91,2.42,4.28,5*07
$GNGLL,1349.44367,N,10025.39063,E,020029.00,A,A*7A
$GNRMC,020030.00,A,1349.44374,N,10025.39060,E,0.071,,210525,,,A,V*17
$GNVTG,,T,,M,0.071,N,0.131,K,A*38
$GNGGA,020030.00,1349.44374,N,10025.39060,E,1,05,2.42,45.7,M,-28.3,M,,*55
$GNGSA,A,3,07,03,30,,,,,,,,,,4.91,2.42,4.28,1*00
$GNGSA,A,3,78,,,,,,,,,,,,4.91,2.42,4.28,2*0B
$GNGSA,A,3,,,,,,,,,,,,,4.91,2.42,4.28,3*05
$GNGSA,A,3,,,,,,,,,,,,,4.91,2.42,4.28,4*02
$GNGSA,A,3,04,,,,,,,,,,,,4.91,2.42,4.28,5*07
$GPGSV,1,1,04,03,23,066,18,06,57,241,18,07,22,168,40,30,48,199,35,1*65
$GLGSV,1,1,02,67,02,138,28,78,38,142,34,1*7D
$GAGSV,1,1,00,0*74
$GBGSV,1,1,00,0*77
$GQGSV,1,1,01,04,24,124,38,1*5A
$GNGLL,1349.44374,N,10025.39060,E,020030.00,A,A*73
$GNRMC,020031.00,A,1349.44356,N,10025.39069,E,0.199,,210525,,,A,V*18
$GNVTG,,T,,M,0.199,N,0.368,K,A*31
$GNGGA,020031.00,1349.44356,N,10025.39069,E,1,05,2.42,45.9,M,-28.3,M,,*53
$GNGSA,A,3,07,03,30,,,,,,,,,,4.91,2.42,4.28,1*00
$GNGSA,A,3,78,,,,,,,,,,,,4.91,2.42,4.28,2*0B
$GNGSA,A,3,,,,,,,,,,,,,4.91,2.42,4.28,3*05
$GNGSA,A,3,,,,,,,,,,,,,4.91,2.42,4.28,4*02
$GNGSA,A,3,04,,,,,,,,,,,,4.91,2.42,4.28,5*07
$GNGLL,1349.44356,N,10025.39069,E,020031.00,A,A*7B
$GNRMC,020032.00,A,1349.44353,N,10025.39071,E,0.098,,210525,,,A,V*17
$GNVTG,,T,,M,0.098,N,0.182,K,A*37
$GNGGA,020032.00,1349.44353,N,10025.39071,E,1,05,2.42,45.8,M,-28.3,M,,*5D
$GNGSA,A,3,07,03,30,,,,,,,,,,4.91,2.42,4.28,1*00
$GNGSA,A,3,78,,,,,,,,,,,,4.91,2.42,4.28,2*0B
$GNGSA,A,3,,,,,,,,,,,,,4.91,2.42,4.28,3*05
$GNGSA,A,3,,,,,,,,,,,,,4.91,2.42,4.28,4*02
$GNGSA,A,3,04,,,,,,,,,,,,4.91,2.42,4.28,5*07
$GNGLL,1349.44353,N,10025.39071,E,020032.00,A,A*74
$GNRMC,020033.00,A,1349.44345,N,10025.39075,E,0.123,,210525,,,A,V*14
$GNVTG,,T,,M,0.123,N,0.228,K,A*35
$GNGGA,020033.00,1349.44345,N,10025.39075,E,1,05,2.42,45.9,M,-28.3,M,,*5E
$GNGSA,A,3,07,03,30,,,,,,,,,,4.91,2.42,4.28,1*00
$GNGSA,A,3,78,,,,,,,,,,,,4.91,2.42,4.28,2*0B
$GNGSA,A,3,,,,,,,,,,,,,4.91,2.42,4.28,3*05
$GNGSA,A,3,,,,,,,,,,,,,4.91,2.42,4.28,4*02
$GNGSA,A,3,04,,,,,,,,,,,,4.91,2.42,4.28,5*07
$GNGLL,1349.44345,N,10025.39075,E,020033.00,A,A*76
$GNRMC,020034.00,A,1349.44352,N,10025.39072,E,0.047,,210525,,,A,V*11
$GNVTG,,T,,M,0.047,N,0.086,K,A*30
$GNGGA,020034.00,1349.44352,N,10025.39072,E,1,05,2.42,45.7,M,-28.3,M,,*56
$GNGSA,A,3,07,03,30,,,,,,,,,,4.91,2.42,4.28,1*00
$GNGSA,A,3,78,,,,,,,,,,,,4.91,2.42,4.28,2*0B
$GNGSA,A,3,,,,,,,,,,,,,4.91,2.42,4.28,3*05
$GNGSA,A,3,,,,,,,,,,,,,4.91,2.42,4.28,4*02
$GNGSA,A,3,04,,,,,,,,,,,,4.91,2.42,4.28,5*07
$GNGLL,1349.44352,N,10025.39072,E,020034.00,A,A*70
$GNRMC,020035.00,A,1349.44355,N,10025.39072,E,0.060,,210525,,,A,V*12
$GNVTG,,T,,M,0.060,N,0.111,K,A*3A
$GNGGA,020035.00,1349.44355,N,10025.39072,E,1,05,2.42,45.6,M,-28.3,M,,*51
$GNGSA,A,3,07,03,30,,,,,,,,,,4.91,2.42,4.28,1*00
$GNGSA,A,3,78,,,,,,,,,,,,4.91,2.42,4.28,2*0B
$GNGSA,A,3,,,,,,,,,,,,,4.91,2.42,4.28,3*05
$GNGSA,A,3,,,,,,,,,,,,,4.91,2.42,4.28,4*02
$GNGSA,A,3,04,,,,,,,,,,,,4.91,2.42,4.28,5*07
$GPGSV,1,1,04,03,23,066,17,06,57,241,17,07,22,168,40,30,48,199,34,1*64
$GLGSV,1,1,02,67,02,138,30,78,38,142,34,1*74
$GAGSV,1,1,00,0*74
$GBGSV,1,1,00,0*77
$GQGSV,1,1,01,04,24,124,38,1*5A
$GNGLL,1349.44355,N,10025.39072,E,020035.00,A,A*76
$GNRMC,020036.00,A,1349.44393,N,10025.39054,E,0.425,,210525,,,A,V*1A
$GNVTG,,T,,M,0.425,N,0.787,K,A*36
$GNGGA,020036.00,1349.44393,N,10025.39054,E,1,05,2.42,44.7,M,-28.3,M,,*5C
$GNGSA,A,3,07,03,30,,,,,,,,,,4.91,2.42,4.28,1*00
$GNGSA,A,3,78,,,,,,,,,,,,4.91,2.42,4.28,2*0B
$GNGSA,A,3,,,,,,,,,,,,,4.91,2.42,4.28,3*05
$GNGSA,A,3,,,,,,,,,,,,,4.91,2.42,4.28,4*02
$GNGSA,A,3,04,,,,,,,,,,,,4.91,2.42,4.28,5*07
$GNGLL,1349.44393,N,10025.39054,E,020036.00,A,A*7B
$GNRMC,020037.00,A,1349.44371,N,10025.39067,E,0.109,,210525,,,A,V*1C
$GNVTG,,T,,M,0.109,N,0.201,K,A*36
$GNGGA,020037.00,1349.44371,N,10025.39067,E,1,05,2.42,45.1,M,-28.3,M,,*56
$GNGSA,A,3,07,03,30,,,,,,,,,,4.91,2.42,4.28,1*00
$GNGSA,A,3,78,,,,,,,,,,,,4.91,2.42,4.28,2*0B
$GNGSA,A,3,,,,,,,,,,,,,4.91,2.42,4.28,3*05
$GNGSA,A,3,,,,,,,,,,,,,4.91,2.42,4.28,4*02
$GNGSA,A,3,04,,,,,,,,,,,,4.91,2.42,4.28,5*07
$GNGLL,1349.44371,N,10025.39067,E,020037.00,A,A*76
$GNRMC,020038.00,A,1349.44362,N,10025.39073,E,0.103,,210525,,,A,V*1E
$GNVTG,,T,,M,0.103,N,0.191,K,A*36
$GNGGA,020038.00,1349.44362,N,10025.39073,E,1,05,2.42,45.1,M,-28.3,M,,*5E
$GNGSA,A,3,07,03,30,,,,,,,,,,4.91,2.42,4.28,1*00
$GNGSA,A,3,78,,,,,,,,,,,,4.91,2.42,4.28,2*0B
$GNGSA,A,3,,,,,,,,,,,,,4.91,2.42,4.28,3*05
$GNGSA,A,3,,,,,,,,,,,,,4.91,2.42,4.28,4*02
$GNGSA,A,3,04,,,,,,,,,,,,4.91,2.42,4.28,5*07
$GNGLL,1349.44362,N,10025.39073,E,020038.00,A,A*7E
$GNRMC,020039.00,A,1349.44370,N,10025.39069,E,0.062,,210525,,,A,V*11
$GNVTG,,T,,M,0.062,N,0.115,K,A*3C
$GNGGA,020039.00,1349.44370,N,10025.39069,E,1,05,2.42,44.8,M,-28.3,M,,*5F
$GNGSA,A,3,07,03,30,,,,,,,,,,4.91,2.42,4.28,1*00
$GNGSA,A,3,78,,,,,,,,,,,,4.91,2.42,4.28,2*0B
$GNGSA,A,3,,,,,,,,,,,,,4.91,2.42,4.28,3*05
$GNGSA,A,3,,,,,,,,,,,,,4.91,2.42,4.28,4*02
$GNGSA,A,3,04,,,,,,,,,,,,4.91,2.42,4.28,5*07
$GNGLL,1349.44370,N,10025.39069,E,020039.00,A,A*77
$GNRMC,020040.00,A,1349.44373,N,10025.39067,E,0.108,,210525,,,A,V*1F
$GNVTG,,T,,M,0.108,N,0.201,K,A*37
$GNGGA,020040.00,1349.44373,N,10025.39067,E,1,05,2.42,44.6,M,-28.3,M,,*52
$GNGSA,A,3,07,03,30,,,,,,,,,,4.91,2.42,4.28,1*00
$GNGSA,A,3,78,,,,,,,,,,,,4.91,2.42,4.28,2*0B
$GNGSA,A,3,,,,,,,,,,,,,4.91,2.42,4.28,3*05
$GNGSA,A,3,,,,,,,,,,,,,4.91,2.42,4.28,4*02
$GNGSA,A,3,04,,,,,,,,,,,,4.91,2.42,4.28,5*07
$GPGSV,1,1,04,03,23,066,18,06,57,241,20,07,22,168,40,30,47,199,35,1*61
$GLGSV,1,1,02,67,02,138,31,78,38,142,34,1*75
$GAGSV,1,1,00,0*74
$GBGSV,1,1,00,0*77
$GQGSV,1,1,01,04,24,124,38,1*5A
$GNGLL,1349.44373,N,10025.39067,E,020040.00,A,A*74
$GNRMC,020041.00,A,1349.44384,N,10025.39062,E,0.265,,210525,,,A,V*1B
$GNVTG,,T,,M,0.265,N,0.491,K,A*30
$GNGGA,020041.00,1349.44384,N,10025.39062,E,1,05,2.42,44.3,M,-28.3,M,,*5B
$GNGSA,A,3,07,03,30,,,,,,,,,,4.91,2.42,4.28,1*00
$GNGSA,A,3,78,,,,,,,,,,,,4.91,2.42,4.28,2*0B
$GNGSA,A,3,,,,,,,,,,,,,4.91,2.42,4.28,3*05
$GNGSA,A,3,,,,,,,,,,,,,4.91,2.42,4.28,4*02
$GNGSA,A,3,04,,,,,,,,,,,,4.91,2.42,4.28,5*07
$GNGLL,1349.44384,N,10025.39062,E,020041.00,A,A*78
$GNRMC,020042.00,A,1349.44385,N,10025.39063,E,0.214,,210525,,,A,V*1E
$GNVTG,,T,,M,0.214,N,0.397,K,A*37
$GNGGA,020042.00,1349.44385,N,10025.39063,E,1,05,2.42,44.0,M,-28.3,M,,*5B
$GNGSA,A,3,07,03,30,,,,,,,,,,4.91,2.42,4.28,1*00
$GNGSA,A,3,78,,,,,,,,,,,,4.91,2.42,4.28,2*0B
$GNGSA,A,3,,,,,,,,,,,,,4.91,2.42,4.28,3*05
$GNGSA,A,3,,,,,,,,,,,,,4.91,2.42,4.28,4*02
$GNGSA,A,3,04,,,,,,,,,,,,4.91,2.42,4.28,5*07
$GNGLL,1349.44385,N,10025.39063,E,020042.00,A,A*7B
$GNRMC,020043.00,A,1349.44394,N,10025.39059,E,0.382,,210525,,,A,V*18
$GNVTG,,T,,M,0.382,N,0.708,K,A*3B
$GNGGA,020043.00,1349.44394,N,10025.39059,E,1,05,2.42,43.7,M,-28.3,M,,*53
$GNGSA,A,3,07,03,30,,,,,,,,,,4.91,2.42,4.28,1*00
$GNGSA,A,3,78,,,,,,,,,,,,4.91,2.42,4.28,2*0B
$GNGSA,A,3,,,,,,,,,,,,,4.91,2.42,4.28,3*05
$GNGSA,A,3,,,,,,,,,,,,,4.91,2.42,4.28,4*02
$GNGSA,A,3,04,,,,,,,,,,,,4.91,2.42,4.28,5*07
$GNGLL,1349.44394,N,10025.39059,E,020043.00,A,A*73
$GNRMC,020044.00,A,1349.44393,N,10025.39062,E,0.310,,210525,,,A,V*1B
$GNVTG,,T,,M,0.310,N,0.573,K,A*3E
$GNGGA,020044.00,1349.44393,N,10025.39062,E,1,05,2.42,43.6,M,-28.3,M,,*5A
$GNGSA,A,3,07,03,30,,,,,,,,,,4.91,2.42,4.28,1*00
$GNGSA,A,3,78,,,,,,,,,,,,4.91,2.42,4.28,2*0B
$GNGSA,A,3,,,,,,,,,,,,,4.91,2.42,4.28,3*05
$GNGSA,A,3,,,,,,,,,,,,,4.91,2.42,4.28,4*02
$GNGSA,A,3,04,,,,,,,,,,,,4.91,2.42,4.28,5*07
$GNGLL,1349.44393,N,10025.39062,E,020044.00,A,A*7B
$GNRMC,020045.00,A,1349.44383,N,10025.39070,E,0.246,,210525,,,A,V*1A
$GNVTG,,T,,M,0.246,N,0.456,K,A*3A
$GNGGA,020045.00,1349.44383,N,10025.39070,E,1,05,2.42,43.5,M,-28.3,M,,*5A
$GNGSA,A,3,07,03,30,,,,,,,,,,4.91,2.42,4.28,1*00
$GNGSA,A,3,78,,,,,,,,,,,,4.91,2.42,4.28,2*0B
$GNGSA,A,3,,,,,,,,,,,,,4.91,2.42,4.28,3*05
$GNGSA,A,3,,,,,,,,,,,,,4.91,2.42,4.28,4*02
$GNGSA,A,3,04,,,,,,,,,,,,4.91,2.42,4.28,5*07
$GPGSV,1,1,04,03,23,066,19,06,57,241,23,07,22,168,40,30,47,199,35,1*63
$GLGSV,1,1,02,67,02,138,32,78,38,142,34,1*76
$GAGSV,1,1,00,0*74
$GBGSV,1,1,00,0*77
$GQGSV,1,1,01,04,24,124,38,1*5A
$GNGLL,1349.44383,N,10025.39070,E,020045.00,A,A*78
$GNRMC,020046.00,A,1349.44353,N,10025.39088,E,0.033,,210525,,,A,V*13
$GNVTG,,T,,M,0.033,N,0.061,K,A*3A
$GNGGA,020046.00,1349.44353,N,10025.39088,E,1,05,2.42,44.0,M,-28.3,M,,*51
$GNGSA,A,3,07,03,30,,,,,,,,,,4.91,2.42,4.28,1*00
$GNGSA,A,3,78,,,,,,,,,,,,4.91,2.42,4.28,2*0B
$GNGSA,A,3,,,,,,,,,,,,,4.91,2.42,4.28,3*05
$GNGSA,A,3,,,,,,,,,,,,,4.91,2.42,4.28,4*02
$GNGSA,A,3,04,,,,,,,,,,,,4.91,2.42,4.28,5*07
$GNGLL,1349.44353,N,10025.39088,E,020046.00,A,A*71
$GNRMC,020047.00,A,1349.44335,N,10025.39099,E,0.042,,210525,,,A,V*14
$GNVTG,,T,,M,0.042,N,0.078,K,A*34
$GNGGA,020047.00,1349.44335,N,10025.39099,E,1,05,2.42,44.1,M,-28.3,M,,*51
$GNGSA,A,3,07,03,30,,,,,,,,,,4.91,2.42,4.28,1*00
$GNGSA,A,3,78,,,,,,,,,,,,4.91,2.42,4.28,2*0B
$GNGSA,A,3,,,,,,,,,,,,,4.91,2.42,4.28,3*05
$GNGSA,A,3,,,,,,,,,,,,,4.91,2.42,4.28,4*02
$GNGSA,A,3,04,,,,,,,,,,,,4.91,2.42,4.28,5*07
$GNGLL,1349.44335,N,10025.39099,E,020047.00,A,A*70
$GNRMC,020048.00,A,1349.44333,N,10025.39101,E,0.089,,210525,,,A,V*1A
$GNVTG,,T,,M,0.089,N,0.164,K,A*3F
$GNGGA,020048.00,1349.44333,N,10025.39101,E,1,05,2.42,43.9,M,-28.3,M,,*57
$GNGSA,A,3,07,03,30,,,,,,,,,,4.91,2.42,4.28,1*00
$GNGSA,A,3,78,,,,,,,,,,,,4.91,2.42,4.28,2*0B
$GNGSA,A,3,,,,,,,,,,,,,4.91,2.42,4.28,3*05
$GNGSA,A,3,,,,,,,,,,,,,4.91,2.42,4.28,4*02
$GNGSA,A,3,04,,,,,,,,,,,,4.91,2.42,4.28,5*07
$GNGLL,1349.44333,N,10025.39101,E,020048.00,A,A*79
$GNRMC,020049.00,A,1349.44287,N,10025.39128,E,0.328,,210525,,,A,V*16
$GNVTG,,T,,M,0.328,N,0.608,K,A*3A
$GNGGA,020049.00,1349.44287,N,10025.39128,E,1,05,2.42,44.8,M,-28.3,M,,*55
$GNGSA,A,3,07,03,30,,,,,,,,,,4.91,2.42,4.28,1*00
$GNGSA,A,3,78,,,,,,,,,,,,4.91,2.42,4.28,2*0B
$GNGSA,A,3,,,,,,,,,,,,,4.91,2.42,4.28,3*05
$GNGSA,A,3,,,,,,,,,,,,,4.91,2.42,4.28,4*02
$GNGSA,A,3,04,,,,,,,,,,,,4.91,2.42,4.28,5*07
$GNGLL,1349.44287,N,10025.39128,E,020049.00,A,A*7D
$GNRMC,020050.00,A,1349.44293,N,10025.39127,E,0.071,,210525,,,A,V*1B
$GNVTG,,T,,M,0.071,N,0.131,K,A*38
$GNGGA,020050.00,1349.44293,N,10025.39127,E,1,05,2.42,44.5,M,-28.3,M,,*5A
$GNGSA,A,3,07,03,30,,,,,,,,,,4.91,2.42,4.28,1*00
$GNGSA,A,3,78,,,,,,,,,,,,4.91,2.42,4.28,2*0B
$GNGSA,A,3,,,,,,,,,,,,,4.91,2.42,4.28,3*05
$GNGSA,A,3,,,,,,,,,,,,,4.91,2.42,4.28,4*02
$GNGSA,A,3,04,,,,,,,,,,,,4.91,2.42,4.28,5*07
$GPGSV,1,1,04,03,23,066,19,06,57,241,22,07,22,168,40,30,47,199,36,1*61
$GLGSV,1,1,02,67,02,138,30,78,38,142,35,1*75
$GAGSV,1,1,00,0*74
$GBGSV,1,1,00,0*77
$GQGSV,1,1,01,04,24,124,38,1*5A
$GNGLL,1349.44293,N,10025.39127,E,020050.00,A,A*7F
$GNRMC,020051.00,A,1349.44286,N,10025.39133,E,0.168,,210525,,,A,V*12
$GNVTG,,T,,M,0.168,N,0.310,K,A*30
$GNGGA,020051.00,1349.44286,N,10025.39133,E,1,05,2.42,44.6,M,-28.3,M,,*59
$GNGSA,A,3,07,03,30,,,,,,,,,,4.91,2.42,4.28,1*00
$GNGSA,A,3,78,,,,,,,,,,,,4.91,2.42,4.28,2*0B
$GNGSA,A,3,,,,,,,,,,,,,4.91,2.42,4.28,3*05
$GNGSA,A,3,,,,,,,,,,,,,4.91,2.42,4.28,4*02
$GNGSA,A,3,04,,,,,,,,,,,,4.91,2.42,4.28,5*07
$GNGLL,1349.44286,N,10025.39133,E,020051.00,A,A*7F
$GNRMC,020052.00,A,1349.44278,N,10025.39140,E,0.079,,210525,,,A,V*15
$GNVTG,,T,,M,0.079,N,0.147,K,A*31
$GNGGA,020052.00,1349.44278,N,10025.39140,E,1,05,2.42,44.7,M,-28.3,M,,*5E
$GNGSA,A,3,07,03,30,,,,,,,,,,4.91,2.42,4.27,1*0F
$GNGSA,A,3,78,,,,,,,,,,,,4.91,2.42,4.27,2*04
$GNGSA,A,3,,,,,,,,,,,,,4.91,2.42,4.27,3*0A
$GNGSA,A,3,,,,,,,,,,,,,4.91,2.42,4.27,4*0D
$GNGSA,A,3,04,,,,,,,,,,,,4.91,2.42,4.27,5*08
$GNGLL,1349.44278,N,10025.39140,E,020052.00,A,A*79
$GNRMC,020053.00,A,1349.44286,N,10025.39139,E,0.059,,210525,,,A,V*19
$GNVTG,,T,,M,0.059,N,0.109,K,A*39
$GNGGA,020053.00,1349.44286,N,10025.39139,E,1,05,2.42,44.3,M,-28.3,M,,*54
$GNGSA,A,3,07,03,30,,,,,,,,,,4.91,2.42,4.27,1*0F
$GNGSA,A,3,78,,,,,,,,,,,,4.91,2.42,4.27,2*04
$GNGSA,A,3,,,,,,,,,,,,,4.91,2.42,4.27,3*0A
$GNGSA,A,3,,,,,,,,,,,,,4.91,2.42,4.27,4*0D
$GNGSA,A,3,04,,,,,,,,,,,,4.91,2.42,4.27,5*08
$GNGLL,1349.44286,N,10025.39139,E,020053.00,A,A*77
$GNRMC,020054.00,A,1349.44276,N,10025.39149,E,0.203,,210525,,,A,V*1B
$GNVTG,,T,,M,0.203,N,0.375,K,A*3D
$GNGGA,020054.00,1349.44276,N,10025.39149,E,1,05,2.42,44.3,M,-28.3,M,,*5B
$GNGSA,A,3,07,03,30,,,,,,,,,,4.91,2.42,4.27,1*0F
$GNGSA,A,3,78,,,,,,,,,,,,4.91,2.42,4.27,2*04
$GNGSA,A,3,,,,,,,,,,,,,4.91,2.42,4.27,3*0A
$GNGSA,A,3,,,,,,,,,,,,,4.91,2.42,4.27,4*0D
$GNGSA,A,3,04,,,,,,,,,,,,4.91,2.42,4.27,5*08
$GNGLL,1349.44276,N,10025.39149,E,020054.00,A,A*78
$GNRMC,020055.00,A,1349.44271,N,10025.39154,E,0.107,,210525,,,A,V*16
$GNVTG,,T,,M,0.107,N,0.198,K,A*3B
$GNGGA,020055.00,1349.44271,N,10025.39154,E,1,05,2.42,44.2,M,-28.3,M,,*50
$GNGSA,A,3,07,03,30,,,,,,,,,,4.91,2.42,4.27,1*0F
$GNGSA,A,3,78,,,,,,,,,,,,4.91,2.42,4.27,2*04
$GNGSA,A,3,,,,,,,,,,,,,4.91,2.42,4.27,3*0A
$GNGSA,A,3,,,,,,,,,,,,,4.91,2.42,4.27,4*0D
$GNGSA,A,3,04,,,,,,,,,,,,4.91,2.42,4.27,5*08
$GPGSV,1,1,04,03,23,066,21,06,57,241,19,07,22,168,39,30,47,199,35,1*6F
$GLGSV,1,1,02,67,02,138,29,78,38,142,36,1*7E
$GAGSV,1,1,00,0*74
$GBGSV,1,1,00,0*77
$GQGSV,1,1,01,04,24,124,37,1*55
$GNGLL,1349.44271,N,10025.39154,E,020055.00,A,A*72
$GNRMC,020056.00,A,1349.44277,N,10025.39154,E,0.063,,210525,,,A,V*10
$GNVTG,,T,,M,0.063,N,0.117,K,A*3F
$GNGGA,020056.00,1349.44277,N,10025.39154,E,1,05,2.42,43.9,M,-28.3,M,,*59
$GNGSA,A,3,07,03,30,,,,,,,,,,4.91,2.42,4.27,1*0F
$GNGSA,A,3,78,,,,,,,,,,,,4.91,2.42,4.27,2*04
$GNGSA,A,3,,,,,,,,,,,,,4.91,2.42,4.27,3*0A
$GNGSA,A,3,,,,,,,,,,,,,4.91,2.42,4.27,4*0D
$GNGSA,A,3,04,,,,,,,,,,,,4.91,2.42,4.27,5*08
$GNGLL,1349.44277,N,10025.39154,E,020056.00,A,A*77
$GNRMC,020057.00,A,1349.44287,N,10025.39152,E,0.097,,210525,,,A,V*13
$GNVTG,,T,,M,0.097,N,0.180,K,A*3A
$GNGGA,020057.00,1349.44287,N,10025.39152,E,1,05,2.42,43.5,M,-28.3,M,,*5D
$GNGSA,A,3,07,03,30,,,,,,,,,,4.91,2.42,4.27,1*0F
$GNGSA,A,3,78,,,,,,,,,,,,4.91,2.42,4.27,2*04
$GNGSA,A,3,,,,,,,,,,,,,4.91,2.42,4.27,3*0A
$GNGSA,A,3,,,,,,,,,,,,,4.91,2.42,4.27,4*0D
$GNGSA,A,3,04,,,,,,,,,,,,4.91,2.42,4.27,5*08
$GNGLL,1349.44287,N,10025.39152,E,020057.00,A,A*7F
$GNRMC,020058.00,A,1349.44288,N,10025.39152,E,0.129,,210525,,,A,V*17
$GNVTG,,T,,M,0.129,N,0.238,K,A*3E
$GNGGA,020058.00,1349.44288,N,10025.39152,E,1,05,2.42,43.3,M,-28.3,M,,*5B
$GNGSA,A,3,07,03,30,,,,,,,,,,4.91,2.42,4.27,1*0F
$GNGSA,A,3,78,,,,,,,,,,,,4.91,2.42,4.27,2*04
$GNGSA,A,3,,,,,,,,,,,,,4.91,2.42,4.27,3*0A
$GNGSA,A,3,,,,,,,,,,,,,4.91,2.42,4.27,4*0D
$GNGSA,A,3,04,,,,,,,,,,,,4.91,2.42,4.27,5*08
$GNGLL,1349.44288,N,10025.39152,E,020058.00,A,A*7F
$GNRMC,020059.00,A,1349.44292,N,10025.39153,E,0.197,,210525,,,A,V*19
$GNVTG,,T,,M,0.197,N,0.364,K,A*33
$GNGGA,020059.00,1349.44292,N,10025.39153,E,1,05,2.42,43.1,M,-28.3,M,,*52
$GNGSA,A,3,07,03,30,,,,,,,,,,4.91,2.42,4.27,1*0F
$GNGSA,A,3,78,,,,,,,,,,,,4.91,2.42,4.27,2*04
$GNGSA,A,3,,,,,,,,,,,,,4.91,2.42,4.27,3*0A
$GNGSA,A,3,,,,,,,,,,,,,4.91,2.42,4.27,4*0D
$GNGSA,A,3,04,,,,,,,,,,,,4.91,2.42,4.27,5*08
$GNGLL,1349.44292,N,10025.39153,E,020059.00,A,A*74
$GNRMC,020100.00,A,1349.44308,N,10025.39148,E,0.255,,210525,,,A,V*11
$GNVTG,,T,,M,0.255,N,0.471,K,A*3D
$GNGGA,020100.00,1349.44308,N,10025.39148,E,1,05,2.42,42.6,M,-28.3,M,,*51
$GNGSA,A,3,07,03,30,,,,,,,,,,4.91,2.42,4.27,1*0F
$GNGSA,A,3,78,,,,,,,,,,,,4.91,2.42,4.27,2*04
$GNGSA,A,3,,,,,,,,,,,,,4.91,2.42,4.27,3*0A
$GNGSA,A,3,,,,,,,,,,,,,4.91,2.42,4.27,4*0D
$GNGSA,A,3,04,,,,,,,,,,,,4.91,2.42,4.27,5*08
$GPGSV,1,1,04,03,23,066,20,06,57,241,18,07,22,168,39,30,47,199,36,1*6C
$GLGSV,1,1,02,67,02,138,30,78,38,142,36,1*76
$GAGSV,1,1,00,0*74
$GBGSV,1,1,00,0*77
$GQGSV,1,1,01,04,24,124,37,1*55
$GNGLL,1349.44308,N,10025.39148,E,020100.00,A,A*71
$GNRMC,020101.00,A,1349.44307,N,10025.39152,E,0.177,,210525,,,A,V*17
$GNVTG,,T,,M,0.177,N,0.328,K,A*35
$GNGGA,020101.00,1349.44307,N,10025.39152,E,1,05,2.42,42.5,M,-28.3,M,,*57
$GNGSA,A,3,07,03,30,,,,,,,,,,4.91,2.42,4.27,1*0F
$GNGSA,A,3,78,,,,,,,,,,,,4.91,2.42,4.27,2*04
$GNGSA,A,3,,,,,,,,,,,,,4.91,2.42,4.27,3*0A
$GNGSA,A,3,,,,,,,,,,,,,4.91,2.42,4.27,4*0D
$GNGSA,A,3,04,,,,,,,,,,,,4.91,2.42,4.27,5*08
$GNGLL,1349.44307,N,10025.39152,E,020101.00,A,A*74
$GNRMC,020102.00,A,1349.44312,N,10025.39151,E,0.281,,210525,,,A,V*19
$GNVTG,,T,,M,0.281,N,0.521,K,A*30
$GNGGA,020102.00,1349.44312,N,10025.39151,E,1,05,2.42,42.2,M,-28.3,M,,*54
$GNGSA,A,3,07,03,30,,,,,,,,,,4.91,2.42,4.27,1*0F
$GNGSA,A,3,78,,,,,,,,,,,,4.91,2.42,4.27,2*04
$GNGSA,A,3,,,,,,,,,,,,,4.91,2.42,4.27,3*0A
$GNGSA,A,3,,,,,,,,,,,,,4.91,2.42,4.27,4*0D
$GNGSA,A,3,04,,,,,,,,,,,,4.91,2.42,4.27,5*08
$GNGLL,1349.44312,N,10025.39151,E,020102.00,A,A*70
$GNRMC,020103.00,A,1349.44331,N,10025.39145,E,0.441,,210525,,,A,V*16
$GNVTG,,T,,M,0.441,N,0.816,K,A*33
$GNGGA,020103.00,1349.44331,N,10025.39145,E,1,05,2.42,41.7,M,-28.3,M,,*57
$GNGSA,A,3,07,03,30,,,,,,,,,,4.91,2.42,4.27,1*0F
$GNGSA,A,3,78,,,,,,,,,,,,4.91,2.42,4.27,2*04
$GNGSA,A,3,,,,,,,,,,,,,4.91,2.42,4.27,3*0A
$GNGSA,A,3,,,,,,,,,,,,,4.91,2.42,4.27,4*0D
$GNGSA,A,3,04,,,,,,,,,,,,4.91,2.42,4.27,5*08
$GNGLL,1349.44331,N,10025.39145,E,020103.00,A,A*75
$GNRMC,020104.00,A,1349.44338,N,10025.39144,E,0.321,,210525,,,A,V*18
$GNVTG,,T,,M,0.321,N,0.594,K,A*35
$GNGGA,020104.00,1349.44338,N,10025.39144,E,1,05,2.42,41.4,M,-28.3,M,,*5B
$GNGSA,A,3,07,03,30,,,,,,,,,,4.91,2.42,4.27,1*0F
$GNGSA,A,3,78,,,,,,,,,,,,4.91,2.42,4.27,2*04
$GNGSA,A,3,,,,,,,,,,,,,4.91,2.42,4.27,3*0A
$GNGSA,A,3,,,,,,,,,,,,,4.91,2.42,4.27,4*0D
$GNGSA,A,3,04,,,,,,,,,,,,4.91,2.42,4.27,5*08
$GNGLL,1349.44338,N,10025.39144,E,020104.00,A,A*7A
$GNRMC,020105.00,A,1349.44336,N,10025.39146,E,0.241,,210525,,,A,V*12
$GNVTG,,T,,M,0.241,N,0.447,K,A*3D
$GNGGA,020105.00,1349.44336,N,10025.39146,E,1,05,2.42,41.2,M,-28.3,M,,*50
$GNGSA,A,3,07,03,30,,,,,,,,,,4.91,2.42,4.27,1*0F
$GNGSA,A,3,78,,,,,,,,,,,,4.91,2.42,4.27,2*04
$GNGSA,A,3,,,,,,,,,,,,,4.91,2.42,4.27,3*0A
$GNGSA,A,3,,,,,,,,,,,,,4.91,2.42,4.27,4*0D
$GNGSA,A,3,04,,,,,,,,,,,,4.91,2.42,4.27,5*08
$GPGSV,1,1,04,03,23,066,22,06,57,241,17,07,22,168,39,30,47,199,36,1*61
$GLGSV,1,1,02,67,02,138,30,78,38,142,36,1*76
$GAGSV,1,1,00,0*74
$GBGSV,1,1,00,0*77
$GQGSV,1,1,01,04,24,124,37,1*55
$GNGLL,1349.44336,N,10025.39146,E,020105.00,A,A*77
$GNRMC,020106.00,A,1349.44321,N,10025.39153,E,0.068,,210525,,,A,V*1A
$GNVTG,,T,,M,0.068,N,0.126,K,A*36
$GNGGA,020106.00,1349.44321,N,10025.39153,E,1,05,2.42,41.3,M,-28.3,M,,*50
$GNGSA,A,3,07,03,30,,,,,,,,,,4.91,2.42,4.27,1*0F
$GNGSA,A,3,78,,,,,,,,,,,,4.91,2.42,4.27,2*04
$GNGSA,A,3,,,,,,,,,,,,,4.91,2.42,4.27,3*0A
$GNGSA,A,3,,,,,,,,,,,,,4.91,2.42,4.27,4*0D
$GNGSA,A,3,04,,,,,,,,,,,,4.91,2.42,4.27,5*08
$GNGLL,1349.44321,N,10025.39153,E,020106.00,A,A*76
$GNRMC,020107.00,A,1349.44304,N,10025.39161,E,0.117,,210525,,,A,V*14
$GNVTG,,T,,M,0.117,N,0.217,K,A*3E
$GNGGA,020107.00,1349.44304,N,10025.39161,E,1,05,2.42,41.5,M,-28.3,M,,*51
$GNGSA,A,3,07,03,30,,,,,,,,,,4.91,2.42,4.27,1*0F
$GNGSA,A,3,78,,,,,,,,,,,,4.91,2.42,4.27,2*04
$GNGSA,A,3,,,,,,,,,,,,,4.91,2.42,4.27,3*0A
$GNGSA,A,3,,,,,,,,,,,,,4.91,2.42,4.27,4*0D
$GNGSA,A,3,04,,,,,,,,,,,,4.91,2.42,4.27,5*08
$GNGLL,1349.44304,N,10025.39161,E,020107.00,A,A*71
$GNRMC,020108.00,A,1349.44313,N,10025.39156,E,0.086,,210525,,,A,V*10
$GNVTG,,T,,M,0.086,N,0.160,K,A*34
$GNGGA,020108.00,1349.44313,N,10025.39156,E,1,05,2.42,41.2,M,-28.3,M,,*5B
$GNGSA,A,3,07,03,30,,,,,,,,,,4.91,2.42,4.27,1*0F
$GNGSA,A,3,78,,,,,,,,,,,,4.91,2.42,4.27,2*04
$GNGSA,A,3,,,,,,,,,,,,,4.91,2.42,4.27,3*0A
$GNGSA,A,3,,,,,,,,,,,,,4.91,2.42,4.27,4*0D
$GNGSA,A,3,04,,,,,,,,,,,,4.91,2.42,4.27,5*08
$GNGLL,1349.44313,N,10025.39156,E,020108.00,A,A*7C
$GNRMC,020109.00,A,1349.44295,N,10025.39164,E,0.182,,210525,,,A,V*1A
$GNVTG,,T,,M,0.182,N,0.338,K,A*3E
$GNGGA,020109.00,1349.44295,N,10025.39164,E,1,05,2.41,41.3,M,-28.3,M,,*56
$GNGSA,A,3,07,03,30,,,,,,,,,,4.91,2.41,4.27,1*0C
$GNGSA,A,3,78,,,,,,,,,,,,4.91,2.41,4.27,2*07
$GNGSA,A,3,,,,,,,,,,,,,4.91,2.41,4.27,3*09
$GNGSA,A,3,,,,,,,,,,,,,4.91,2.41,4.27,4*0E
$GNGSA,A,3,04,,,,,,,,,,,,4.91,2.41,4.27,5*0B
$GNGLL,1349.44295,N,10025.39164,E,020109.00,A,A*73
$GNRMC,020110.00,A,1349.44299,N,10025.39161,E,0.043,,210525,,,A,V*17
$GNVTG,,T,,M,0.043,N,0.080,K,A*32
